frame_count,sample_time,gps_datetime,latitude,longitude,rel_alt,drone_roll,drone_pitch,drone_yaw,gimbal_pitch,gimbal_yaw
1,0.0,2026:04:27 12:22:26.000Z,32.1026240680275,35.2097240515361,19.6,8.2,-0.1,179.0,-45.2,172.3
2,0.0333666666666667,2026:04:27 12:22:26.033Z,32.1026240680275,35.2097240515361,19.6,8.2,-0.1,179.0,-45.2,172.3
3,0.0667333333333333,2026:04:27 12:22:26.067Z,32.1026240404022,35.2097240178751,19.6,8.1,0.5,179.1,-45.2,172.3
4,0.1001,2026:04:27 12:22:26.100Z,32.1026240404022,35.2097240178751,19.6,8.1,0.5,179.1,-45.2,172.3
5,0.133466666666667,2026:04:27 12:22:26.133Z,32.1026240404022,35.2097240178751,19.6,8.1,0.5,179.1,-45.2,172.3
6,0.166833333333333,2026:04:27 12:22:26.167Z,32.1026240435252,35.2097239580793,19.6,7.9,0.6,179.1,-45.2,172.3
7,0.2002,2026:04:27 12:22:26.200Z,32.1026240435252,35.2097239580793,19.6,7.9,0.6,179.1,-45.2,172.3
8,0.233566666666667,2026:04:27 12:22:26.234Z,32.1026240435252,35.2097239580793,19.6,7.9,0.6,179.1,-45.2,172.3
9,0.266933333333333,2026:04:27 12:22:26.267Z,32.1026240974456,35.2097238972115,19.6,7.6,0.3,179.0,-45.2,172.3
10,0.3003,2026:04:27 12:22:26.300Z,32.1026240974456,35.2097238972115,19.6,7.6,0.3,179.0,-45.2,172.3
11,0.333666666666667,2026:04:27 12:22:26.334Z,32.1026240974456,35.2097238972115,19.6,7.6,0.3,179.0,-45.2,172.3
12,0.367033333333333,2026:04:27 12:22:26.367Z,32.102624142676,35.2097238315873,19.6,7.4,0.1,179.0,-45.2,172.3
13,0.4004,2026:04:27 12:22:26.400Z,32.102624142676,35.2097238315873,19.6,7.4,0.1,179.0,-45.2,172.3
14,0.433766666666667,2026:04:27 12:22:26.434Z,32.102624142676,35.2097238315873,19.6,7.4,0.1,179.0,-45.2,172.3
15,0.467133333333333,2026:04:27 12:22:26.467Z,32.1026241728631,35.2097237844148,19.6,7.2,0.1,179.1,-45.2,172.3
16,0.5005,2026:04:27 12:22:26.500Z,32.1026241728631,35.2097237844148,19.6,7.2,0.1,179.1,-45.2,172.3
17,0.533866666666667,2026:04:27 12:22:26.534Z,32.1026241728631,35.2097237844148,19.6,7.2,0.1,179.1,-45.2,172.3
18,0.567233333333333,2026:04:27 12:22:26.567Z,32.1026242184726,35.2097237509528,19.6,7.0,0.2,179.1,-45.2,172.3
19,0.6006,2026:04:27 12:22:26.601Z,32.1026242184726,35.2097237509528,19.6,7.0,0.2,179.1,-45.2,172.3
20,0.633966666666667,2026:04:27 12:22:26.634Z,32.1026242184726,35.2097237509528,19.6,7.0,0.2,179.1,-45.2,172.3
21,0.667333333333333,2026:04:27 12:22:26.667Z,32.1026242700411,35.2097237094182,19.6,6.9,0.5,179.1,-45.2,172.3
22,0.7007,2026:04:27 12:22:26.701Z,32.1026242700411,35.2097237094182,19.6,6.9,0.5,179.1,-45.2,172.3
23,0.734066666666667,2026:04:27 12:22:26.734Z,32.1026242700411,35.2097237094182,19.6,6.9,0.5,179.1,-45.2,172.3
24,0.767433333333333,2026:04:27 12:22:26.767Z,32.1026243303126,35.2097237092784,19.6,6.7,0.8,179.1,-45.2,172.3
25,0.8008,2026:04:27 12:22:26.801Z,32.1026243303126,35.2097237092784,19.6,6.7,0.8,179.1,-45.2,172.3
26,0.834166666666667,2026:04:27 12:22:26.834Z,32.1026243303126,35.2097237092784,19.6,6.7,0.8,179.1,-45.2,172.3
27,0.867533333333333,2026:04:27 12:22:26.868Z,32.1026243813413,35.2097236665174,19.6,6.7,0.8,179.1,-45.2,172.3
28,0.9009,2026:04:27 12:22:26.901Z,32.1026243813413,35.2097236665174,19.6,6.7,0.8,179.1,-45.2,172.3
29,0.934266666666667,2026:04:27 12:22:26.934Z,32.1026243813413,35.2097236665174,19.6,6.7,0.8,179.1,-45.2,172.3
30,0.967633333333333,2026:04:27 12:22:26.968Z,32.102624431087,35.20972365267,19.6,6.6,0.7,179.1,-45.2,172.3
31,1.001,2026:04:27 12:22:27.001Z,32.102624431087,35.20972365267,19.6,6.6,0.7,179.1,-45.2,172.3
32,1.03436666666667,2026:04:27 12:22:27.034Z,32.102624431087,35.20972365267,19.6,6.6,0.7,179.1,-45.2,172.3
33,1.06773333333333,2026:04:27 12:22:27.068Z,32.1026244876099,35.2097236352643,19.6,6.7,0.7,179.1,-45.2,172.3
34,1.1011,2026:04:27 12:22:27.101Z,32.1026244876099,35.2097236352643,19.6,6.7,0.7,179.1,-45.2,172.3
35,1.13446666666667,2026:04:27 12:22:27.134Z,32.1026244876099,35.2097236352643,19.6,6.7,0.7,179.1,-45.2,172.3
36,1.16783333333333,2026:04:27 12:22:27.168Z,32.1026245186474,35.2097236353362,19.6,6.8,0.9,179.1,-45.2,172.3
37,1.2012,2026:04:27 12:22:27.201Z,32.1026245186474,35.2097236353362,19.6,6.8,0.9,179.1,-45.2,172.3
38,1.23456666666667,2026:04:27 12:22:27.235Z,32.1026245186474,35.2097236353362,19.6,6.8,0.9,179.1,-45.2,172.3
39,1.26793333333333,2026:04:27 12:22:27.268Z,32.1026245501733,35.2097236504998,19.6,6.8,1.0,179.1,-45.2,172.3
40,1.3013,2026:04:27 12:22:27.301Z,32.1026245501733,35.2097236504998,19.6,6.8,1.0,179.1,-45.2,172.3
41,1.33466666666667,2026:04:27 12:22:27.335Z,32.1026245501733,35.2097236504998,19.6,6.8,1.0,179.1,-45.2,172.3
42,1.36803333333333,2026:04:27 12:22:27.368Z,32.1026245691043,35.2097236759498,19.6,6.8,1.1,179.1,-45.2,172.3
43,1.4014,2026:04:27 12:22:27.401Z,32.1026245691043,35.2097236759498,19.6,6.8,1.1,179.1,-45.2,172.3
44,1.43476666666667,2026:04:27 12:22:27.435Z,32.1026245691043,35.2097236759498,19.6,6.8,1.1,179.1,-45.2,172.3
45,1.46813333333333,2026:04:27 12:22:27.468Z,32.1026246053318,35.2097236534257,19.6,6.9,1.1,179.1,-45.2,172.3
46,1.5015,2026:04:27 12:22:27.501Z,32.1026246053318,35.2097236534257,19.6,6.9,1.1,179.1,-45.2,172.3
47,1.53486666666667,2026:04:27 12:22:27.535Z,32.1026246053318,35.2097236534257,19.6,6.9,1.1,179.1,-45.2,172.3
48,1.56823333333333,2026:04:27 12:22:27.568Z,32.1026246281783,35.2097236646953,19.6,6.9,1.4,179.1,-45.2,172.3
49,1.6016,2026:04:27 12:22:27.602Z,32.1026246281783,35.2097236646953,19.6,6.9,1.4,179.1,-45.2,172.3
50,1.63496666666667,2026:04:27 12:22:27.635Z,32.1026246398779,35.2097237165341,19.6,7.1,1.5,179.1,-45.2,172.3
51,1.66833333333333,2026:04:27 12:22:27.668Z,32.1026246398779,35.2097237165341,19.6,7.1,1.5,179.1,-45.2,172.3
52,1.7017,2026:04:27 12:22:27.702Z,32.1026246398779,35.2097237165341,19.6,7.1,1.5,179.1,-45.2,172.3
53,1.73506666666667,2026:04:27 12:22:27.735Z,32.1026246580056,35.2097237243051,19.6,7.1,1.2,179.1,-45.2,172.3
54,1.76843333333333,2026:04:27 12:22:27.768Z,32.1026246580056,35.2097237243051,19.6,7.1,1.2,179.1,-45.2,172.3
55,1.8018,2026:04:27 12:22:27.802Z,32.1026246580056,35.2097237243051,19.6,7.1,1.2,179.1,-45.2,172.3
56,1.83516666666667,2026:04:27 12:22:27.835Z,32.1026247072586,35.2097237078265,19.6,6.9,0.8,179.1,-45.2,172.3
57,1.86853333333333,2026:04:27 12:22:27.869Z,32.1026247072586,35.2097237078265,19.6,6.9,0.8,179.1,-45.2,172.3
58,1.9019,2026:04:27 12:22:27.902Z,32.1026247072586,35.2097237078265,19.6,6.9,0.8,179.1,-45.2,172.3
59,1.93526666666667,2026:04:27 12:22:27.935Z,32.1026247682562,35.209723688455,19.6,6.7,0.8,179.1,-45.2,172.3
60,1.96863333333333,2026:04:27 12:22:27.969Z,32.1026247682562,35.209723688455,19.6,6.7,0.8,179.1,-45.2,172.3
61,2.002,2026:04:27 12:22:28.002Z,32.1026247682562,35.209723688455,19.6,6.7,0.8,179.1,-45.2,172.3
62,2.03536666666667,2026:04:27 12:22:28.035Z,32.1026247906465,35.209723691364,19.7,6.5,0.9,179.1,-45.2,172.3
63,2.06873333333333,2026:04:27 12:22:28.069Z,32.1026247906465,35.209723691364,19.7,6.5,0.9,179.1,-45.2,172.3
64,2.1021,2026:04:27 12:22:28.102Z,32.1026247906465,35.209723691364,19.7,6.5,0.9,179.1,-45.2,172.3
65,2.13546666666667,2026:04:27 12:22:28.135Z,32.1026248378004,35.2097236947256,19.7,6.3,0.9,179.1,-45.2,172.3
66,2.16883333333333,2026:04:27 12:22:28.169Z,32.1026248378004,35.2097236947256,19.7,6.3,0.9,179.1,-45.2,172.3
67,2.2022,2026:04:27 12:22:28.202Z,32.1026248378004,35.2097236947256,19.7,6.3,0.9,179.1,-45.2,172.3
68,2.23556666666667,2026:04:27 12:22:28.236Z,32.1026248946468,35.2097237215468,19.7,6.2,0.9,179.1,-45.2,172.3
69,2.26893333333333,2026:04:27 12:22:28.269Z,32.1026248946468,35.2097237215468,19.7,6.2,0.9,179.1,-45.2,172.3
70,2.3023,2026:04:27 12:22:28.302Z,32.1026248946468,35.2097237215468,19.7,6.2,0.9,179.1,-45.2,172.3
71,2.33566666666667,2026:04:27 12:22:28.336Z,32.1026249276142,35.2097237445763,19.7,5.9,1.1,179.1,-45.2,172.3
72,2.36903333333333,2026:04:27 12:22:28.369Z,32.1026249276142,35.2097237445763,19.7,5.9,1.1,179.1,-45.2,172.3
73,2.4024,2026:04:27 12:22:28.402Z,32.1026249276142,35.2097237445763,19.7,5.9,1.1,179.1,-45.2,172.3
74,2.43576666666667,2026:04:27 12:22:28.436Z,32.102624959185,35.2097237705137,19.7,5.2,1.1,179.1,-45.2,172.3
75,2.46913333333333,2026:04:27 12:22:28.469Z,32.102624959185,35.2097237705137,19.7,5.2,1.1,179.1,-45.2,172.3
76,2.5025,2026:04:27 12:22:28.503Z,32.102624959185,35.2097237705137,19.7,5.2,1.1,179.1,-45.2,172.3
77,2.53586666666667,2026:04:27 12:22:28.536Z,32.1026250140115,35.209723793374,19.8,4.6,0.7,179.2,-45.2,172.3
78,2.56923333333333,2026:04:27 12:22:28.569Z,32.1026250140115,35.209723793374,19.8,4.6,0.7,179.2,-45.2,172.3
79,2.6026,2026:04:27 12:22:28.603Z,32.1026250140115,35.209723793374,19.8,4.6,0.7,179.2,-45.2,172.3
80,2.63596666666667,2026:04:27 12:22:28.636Z,32.1026250465592,35.2097237234448,19.9,4.8,1.1,179.2,-45.2,172.3
81,2.66933333333333,2026:04:27 12:22:28.669Z,32.1026250465592,35.2097237234448,19.9,4.8,1.1,179.2,-45.2,172.3
82,2.7027,2026:04:27 12:22:28.703Z,32.1026250465592,35.2097237234448,19.9,4.8,1.1,179.2,-45.2,172.3
83,2.73606666666667,2026:04:27 12:22:28.736Z,32.1026250964034,35.2097237358103,20.1,5.4,1.7,179.1,-45.2,172.3
84,2.76943333333333,2026:04:27 12:22:28.769Z,32.1026250964034,35.2097237358103,20.1,5.4,1.7,179.1,-45.2,172.3
85,2.8028,2026:04:27 12:22:28.803Z,32.1026250964034,35.2097237358103,20.1,5.4,1.7,179.1,-45.2,172.3
86,2.83616666666667,2026:04:27 12:22:28.836Z,32.1026252122767,35.2097236864063,20.3,5.6,1.2,179.2,-45.2,172.3
87,2.86953333333333,2026:04:27 12:22:28.870Z,32.1026252122767,35.2097236864063,20.3,5.6,1.2,179.2,-45.2,172.3
88,2.9029,2026:04:27 12:22:28.903Z,32.1026252122767,35.2097236864063,20.3,5.6,1.2,179.2,-45.2,172.3
89,2.93626666666667,2026:04:27 12:22:28.936Z,32.1026252736491,35.2097236495019,20.6,5.2,1.1,179.2,-45.2,172.3
90,2.96963333333333,2026:04:27 12:22:28.970Z,32.1026252736491,35.2097236495019,20.6,5.2,1.1,179.2,-45.2,172.3
91,3.003,2026:04:27 12:22:29.003Z,32.1026252736491,35.2097236495019,20.6,5.2,1.1,179.2,-45.2,172.3
92,3.03636666666667,2026:04:27 12:22:29.036Z,32.1026253334622,35.2097235261939,21.0,4.8,0.3,179.1,-45.2,172.3
93,3.06973333333333,2026:04:27 12:22:29.070Z,32.1026253334622,35.2097235261939,21.0,4.8,0.3,179.1,-45.2,172.3
94,3.1031,2026:04:27 12:22:29.103Z,32.1026253334622,35.2097235261939,21.0,4.8,0.3,179.1,-45.2,172.3
95,3.23656666666667,2026:04:27 12:22:29.237Z,32.1026253721873,35.2097233704606,21.7,3.5,-0.6,179.2,-45.2,172.3
96,3.26993333333333,2026:04:27 12:22:29.270Z,32.1026253721873,35.2097233704606,21.7,3.5,-0.6,179.2,-45.2,172.3
97,3.3033,2026:04:27 12:22:29.303Z,32.1026253721873,35.2097233704606,21.7,3.5,-0.6,179.2,-45.2,172.3
98,3.33666666666667,2026:04:27 12:22:29.337Z,32.1026253979619,35.2097232701214,22.1,4.3,-0.3,179.1,-45.2,172.3
99,3.37003333333333,2026:04:27 12:22:29.370Z,32.1026253979619,35.2097232701214,22.1,4.3,-0.3,179.1,-45.2,172.3
100,3.4034,2026:04:27 12:22:29.403Z,32.1026253979619,35.2097232701214,22.1,4.3,-0.3,179.1,-45.2,172.3
101,3.43676666666667,2026:04:27 12:22:29.437Z,32.1026253727442,35.209723188264,22.5,5.3,-0.2,179.1,-45.2,172.3
102,3.47013333333333,2026:04:27 12:22:29.470Z,32.1026253727442,35.209723188264,22.5,5.3,-0.2,179.1,-45.2,172.3
103,3.5035,2026:04:27 12:22:29.503Z,32.1026253727442,35.209723188264,22.5,5.3,-0.2,179.1,-45.2,172.3
104,3.53686666666667,2026:04:27 12:22:29.537Z,32.1026252940623,35.2097230654731,22.8,6.3,-0.8,179.0,-45.2,172.3
105,3.57023333333333,2026:04:27 12:22:29.570Z,32.1026252940623,35.2097230654731,22.8,6.3,-0.8,179.0,-45.2,172.3
106,3.6036,2026:04:27 12:22:29.604Z,32.1026252940623,35.2097230654731,22.8,6.3,-0.8,179.0,-45.2,172.3
107,3.63696666666667,2026:04:27 12:22:29.637Z,32.1026252209861,35.2097229754445,23.3,6.7,-1.9,178.8,-45.2,172.3
108,3.67033333333333,2026:04:27 12:22:29.670Z,32.1026252209861,35.2097229754445,23.3,6.7,-1.9,178.8,-45.2,172.3
109,3.7037,2026:04:27 12:22:29.704Z,32.1026252209861,35.2097229754445,23.3,6.7,-1.9,178.8,-45.2,172.3
110,3.73706666666667,2026:04:27 12:22:29.737Z,32.1026251368742,35.209722878239,23.7,6.7,-1.5,179.0,-45.2,172.3
111,3.77043333333333,2026:04:27 12:22:29.770Z,32.1026251368742,35.209722878239,23.7,6.7,-1.5,179.0,-45.2,172.3
112,3.8038,2026:04:27 12:22:29.804Z,32.1026251368742,35.209722878239,23.7,6.7,-1.5,179.0,-45.2,172.3
113,3.83716666666667,2026:04:27 12:22:29.837Z,32.1026250262702,35.2097227544733,24.1,6.4,-0.9,179.0,-45.2,172.3
114,3.87053333333333,2026:04:27 12:22:29.871Z,32.1026250262702,35.2097227544733,24.1,6.4,-0.9,179.0,-45.2,172.3
115,3.9039,2026:04:27 12:22:29.904Z,32.1026250262702,35.2097227544733,24.1,6.4,-0.9,179.0,-45.2,172.3
116,3.93726666666667,2026:04:27 12:22:29.937Z,32.1026248574724,35.209722615932,24.6,6.3,-0.9,178.9,-45.2,172.3
117,3.97063333333333,2026:04:27 12:22:29.971Z,32.1026248574724,35.209722615932,24.6,6.3,-0.9,178.9,-45.2,172.3
118,4.004,2026:04:27 12:22:30.004Z,32.1026248574724,35.209722615932,24.6,6.3,-0.9,178.9,-45.2,172.3
119,4.03736666666667,2026:04:27 12:22:30.037Z,32.1026249466929,35.2097225807907,25.0,6.2,-1.7,179.0,-45.2,172.3
120,4.07073333333333,2026:04:27 12:22:30.071Z,32.1026249466929,35.2097225807907,25.0,6.2,-1.7,179.0,-45.2,172.3
121,4.1041,2026:04:27 12:22:30.104Z,32.1026249466929,35.2097225807907,25.0,6.2,-1.7,179.0,-45.2,172.3
122,4.13746666666667,2026:04:27 12:22:30.137Z,32.1026248869356,35.2097225720565,25.5,5.7,-1.2,179.0,-45.2,172.3
123,4.17083333333333,2026:04:27 12:22:30.171Z,32.1026248869356,35.2097225720565,25.5,5.7,-1.2,179.0,-45.2,172.3
124,4.2042,2026:04:27 12:22:30.204Z,32.1026248869356,35.2097225720565,25.5,5.7,-1.2,179.0,-45.2,172.3
125,4.23756666666667,2026:04:27 12:22:30.238Z,32.1026248478956,35.2097226169935,25.8,5.5,-0.5,179.1,-45.2,172.3
126,4.27093333333333,2026:04:27 12:22:30.271Z,32.1026248478956,35.2097226169935,25.8,5.5,-0.5,179.1,-45.2,172.3
127,4.3043,2026:04:27 12:22:30.304Z,32.1026248478956,35.2097226169935,25.8,5.5,-0.5,179.1,-45.2,172.3
128,4.33766666666667,2026:04:27 12:22:30.338Z,32.1026248607133,35.2097226940983,26.3,4.9,-0.1,179.2,-45.2,172.3
129,4.37103333333333,2026:04:27 12:22:30.371Z,32.1026248607133,35.2097226940983,26.3,4.9,-0.1,179.2,-45.2,172.3
130,4.4044,2026:04:27 12:22:30.404Z,32.1026248607133,35.2097226940983,26.3,4.9,-0.1,179.2,-45.2,172.3
131,4.43776666666667,2026:04:27 12:22:30.438Z,32.1026249081906,35.2097228049851,26.8,4.5,0.5,179.1,-45.2,172.3
132,4.47113333333333,2026:04:27 12:22:30.471Z,32.1026249081906,35.2097228049851,26.8,4.5,0.5,179.1,-45.2,172.3
133,4.5045,2026:04:27 12:22:30.504Z,32.1026249081906,35.2097228049851,26.8,4.5,0.5,179.1,-45.2,172.3
134,4.53786666666667,2026:04:27 12:22:30.538Z,32.1026249822308,35.2097229308039,27.3,4.4,1.0,179.1,-45.2,172.3
135,4.57123333333333,2026:04:27 12:22:30.571Z,32.1026249822308,35.2097229308039,27.3,4.4,1.0,179.1,-45.2,172.3
136,4.6046,2026:04:27 12:22:30.605Z,32.1026249822308,35.2097229308039,27.3,4.4,1.0,179.1,-45.2,172.3
137,4.63796666666667,2026:04:27 12:22:30.638Z,32.102625093848,35.2097230171359,27.8,4.2,1.3,179.2,-45.2,172.3
138,4.67133333333333,2026:04:27 12:22:30.671Z,32.102625093848,35.2097230171359,27.8,4.2,1.3,179.2,-45.2,172.3
139,4.7047,2026:04:27 12:22:30.705Z,32.102625093848,35.2097230171359,27.8,4.2,1.3,179.2,-45.2,172.3
140,4.73806666666667,2026:04:27 12:22:30.738Z,32.1026251258943,35.2097231144428,28.4,3.7,1.2,179.1,-45.2,172.3
141,4.77143333333333,2026:04:27 12:22:30.771Z,32.1026251258943,35.2097231144428,28.4,3.7,1.2,179.1,-45.2,172.3
142,4.8048,2026:04:27 12:22:30.805Z,32.1026251258943,35.2097231144428,28.4,3.7,1.2,179.1,-45.2,172.3
143,4.83816666666667,2026:04:27 12:22:30.838Z,32.1026252192446,35.2097230258563,29.1,4.0,1.2,179.1,-45.2,172.3
144,4.87153333333333,2026:04:27 12:22:30.872Z,32.1026252192446,35.2097230258563,29.1,4.0,1.2,179.1,-45.2,172.3
145,4.9049,2026:04:27 12:22:30.905Z,32.1026252192446,35.2097230258563,29.1,4.0,1.2,179.1,-45.2,172.3
146,4.93826666666667,2026:04:27 12:22:30.938Z,32.102625245664,35.2097230342953,29.8,4.5,0.5,179.1,-45.2,172.3
147,4.97163333333333,2026:04:27 12:22:30.972Z,32.102625245664,35.2097230342953,29.8,4.5,0.5,179.1,-45.2,172.3
148,5.005,2026:04:27 12:22:31.005Z,32.102625245664,35.2097230342953,29.8,4.5,0.5,179.1,-45.2,172.3
149,5.03836666666667,2026:04:27 12:22:31.038Z,32.1026253364738,35.2097229455863,30.4,4.8,0.3,179.2,-45.2,172.3
150,5.07173333333333,2026:04:27 12:22:31.072Z,32.1026253364738,35.2097229455863,30.4,4.8,0.3,179.2,-45.2,172.3
151,5.1051,2026:04:27 12:22:31.105Z,32.1026253364738,35.2097229455863,30.4,4.8,0.3,179.2,-45.2,172.3
152,5.23856666666667,2026:04:27 12:22:31.239Z,32.1026254073524,35.2097228657349,31.7,4.5,0.2,178.9,-45.2,172.3
153,5.27193333333333,2026:04:27 12:22:31.272Z,32.1026254073524,35.2097228657349,31.7,4.5,0.2,178.9,-45.2,172.3
154,5.3053,2026:04:27 12:22:31.305Z,32.1026254073524,35.2097228657349,31.7,4.5,0.2,178.9,-45.2,172.3
155,5.33866666666667,2026:04:27 12:22:31.339Z,32.1026254234645,35.2097228120247,32.3,4.1,-0.1,179.0,-45.2,172.3
156,5.37203333333333,2026:04:27 12:22:31.372Z,32.1026254234645,35.2097228120247,32.3,4.1,-0.1,179.0,-45.2,172.3
157,5.4054,2026:04:27 12:22:31.405Z,32.1026254234645,35.2097228120247,32.3,4.1,-0.1,179.0,-45.2,172.3
158,5.43876666666667,2026:04:27 12:22:31.439Z,32.1026254992504,35.2097227360664,32.9,3.5,-0.3,179.0,-45.2,172.3
159,5.47213333333333,2026:04:27 12:22:31.472Z,32.1026254992504,35.2097227360664,32.9,3.5,-0.3,179.0,-45.2,172.3
160,5.5055,2026:04:27 12:22:31.506Z,32.1026254992504,35.2097227360664,32.9,3.5,-0.3,179.0,-45.2,172.3
161,5.53886666666667,2026:04:27 12:22:31.539Z,32.1026254582462,35.2097226338146,33.5,3.5,-0.6,179.0,-45.2,172.3
162,5.57223333333333,2026:04:27 12:22:31.572Z,32.1026254582462,35.2097226338146,33.5,3.5,-0.6,179.0,-45.2,172.3
163,5.6056,2026:04:27 12:22:31.606Z,32.1026254582462,35.2097226338146,33.5,3.5,-0.6,179.0,-45.2,172.3
164,5.63896666666667,2026:04:27 12:22:31.639Z,32.1026253790974,35.2097226380295,34.2,4.2,-0.7,179.0,-45.2,172.3
165,5.67233333333333,2026:04:27 12:22:31.672Z,32.1026253790974,35.2097226380295,34.2,4.2,-0.7,179.0,-45.2,172.3
166,5.7057,2026:04:27 12:22:31.706Z,32.1026253790974,35.2097226380295,34.2,4.2,-0.7,179.0,-45.2,172.3
167,5.73906666666667,2026:04:27 12:22:31.739Z,32.1026252631876,35.2097225140944,34.8,5.4,-1.2,179.0,-45.2,172.3
168,5.77243333333333,2026:04:27 12:22:31.772Z,32.1026252631876,35.2097225140944,34.8,5.4,-1.2,179.0,-45.2,172.3
169,5.8058,2026:04:27 12:22:31.806Z,32.1026252631876,35.2097225140944,34.8,5.4,-1.2,179.0,-45.2,172.3
170,5.83916666666667,2026:04:27 12:22:31.839Z,32.1026252735592,35.209722581124,35.3,6.0,-1.4,178.9,-45.2,172.3
171,5.87253333333333,2026:04:27 12:22:31.873Z,32.1026252735592,35.209722581124,35.3,6.0,-1.4,178.9,-45.2,172.3
172,5.9059,2026:04:27 12:22:31.906Z,32.1026252735592,35.209722581124,35.3,6.0,-1.4,178.9,-45.2,172.3
173,5.93926666666667,2026:04:27 12:22:31.939Z,32.1026252193389,35.2097224927373,35.9,6.2,-2.3,178.8,-45.2,172.3
174,5.97263333333333,2026:04:27 12:22:31.973Z,32.1026252193389,35.2097224927373,35.9,6.2,-2.3,178.8,-45.2,172.3
175,6.006,2026:04:27 12:22:32.006Z,32.1026252193389,35.2097224927373,35.9,6.2,-2.3,178.8,-45.2,172.3
176,6.03936666666667,2026:04:27 12:22:32.039Z,32.102625202687,35.2097224257106,36.6,6.0,-2.7,178.9,-45.2,172.3
177,6.07273333333333,2026:04:27 12:22:32.073Z,32.102625202687,35.2097224257106,36.6,6.0,-2.7,178.9,-45.2,172.3
178,6.1061,2026:04:27 12:22:32.106Z,32.102625202687,35.2097224257106,36.6,6.0,-2.7,178.9,-45.2,172.3
179,6.13946666666667,2026:04:27 12:22:32.139Z,32.1026251757964,35.2097223304841,37.2,5.3,-1.8,178.9,-45.2,172.3
180,6.17283333333333,2026:04:27 12:22:32.173Z,32.1026251757964,35.2097223304841,37.2,5.3,-1.8,178.9,-45.2,172.3
181,6.2062,2026:04:27 12:22:32.206Z,32.1026251757964,35.2097223304841,37.2,5.3,-1.8,178.9,-45.2,172.3
182,6.23956666666667,2026:04:27 12:22:32.240Z,32.1026251427583,35.2097224001709,37.7,5.1,-2.1,178.8,-45.2,172.3
183,6.27293333333333,2026:04:27 12:22:32.273Z,32.1026251427583,35.2097224001709,37.7,5.1,-2.1,178.8,-45.2,172.3
184,6.3063,2026:04:27 12:22:32.306Z,32.1026251427583,35.2097224001709,37.7,5.1,-2.1,178.8,-45.2,172.3
185,6.33966666666667,2026:04:27 12:22:32.340Z,32.1026250856291,35.2097222740492,38.3,6.1,-2.5,178.8,-45.2,172.3
186,6.37303333333333,2026:04:27 12:22:32.373Z,32.1026250856291,35.2097222740492,38.3,6.1,-2.5,178.8,-45.2,172.3
187,6.4064,2026:04:27 12:22:32.406Z,32.1026250856291,35.2097222740492,38.3,6.1,-2.5,178.8,-45.2,172.3
188,6.43976666666667,2026:04:27 12:22:32.440Z,32.1026250460579,35.2097223586088,38.8,6.4,-3.0,178.8,-45.2,172.3
189,6.47313333333333,2026:04:27 12:22:32.473Z,32.1026250460579,35.2097223586088,38.8,6.4,-3.0,178.8,-45.2,172.3
190,6.5065,2026:04:27 12:22:32.507Z,32.1026250460579,35.2097223586088,38.8,6.4,-3.0,178.8,-45.2,172.3
191,6.53986666666667,2026:04:27 12:22:32.540Z,32.1026250082496,35.2097222438995,39.5,5.7,-3.1,178.8,-45.2,172.3
192,6.57323333333333,2026:04:27 12:22:32.573Z,32.1026250082496,35.2097222438995,39.5,5.7,-3.1,178.8,-45.2,172.3
193,6.6066,2026:04:27 12:22:32.607Z,32.1026250082496,35.2097222438995,39.5,5.7,-3.1,178.8,-45.2,172.3
194,6.63996666666667,2026:04:27 12:22:32.640Z,32.102624991919,35.2097223855386,40.1,6.0,-2.9,178.9,-45.2,172.3
195,6.67333333333333,2026:04:27 12:22:32.673Z,32.102624991919,35.2097223855386,40.1,6.0,-2.9,178.9,-45.2,172.3
196,6.7067,2026:04:27 12:22:32.707Z,32.102624991919,35.2097223855386,40.1,6.0,-2.9,178.9,-45.2,172.3
197,6.74006666666667,2026:04:27 12:22:32.740Z,32.1026249051661,35.2097223399405,40.7,6.3,-3.2,178.9,-45.2,172.3
198,6.77343333333333,2026:04:27 12:22:32.773Z,32.1026249051661,35.2097223399405,40.7,6.3,-3.2,178.9,-45.2,172.3
199,6.8068,2026:04:27 12:22:32.807Z,32.1026249051661,35.2097223399405,40.7,6.3,-3.2,178.9,-45.2,172.3
200,6.84016666666667,2026:04:27 12:22:32.840Z,32.1026249421219,35.2097225421994,41.3,6.3,-3.2,179.0,-45.2,172.3
201,6.87353333333333,2026:04:27 12:22:32.874Z,32.1026249421219,35.2097225421994,41.3,6.3,-3.2,179.0,-45.2,172.3
202,6.9069,2026:04:27 12:22:32.907Z,32.1026249421219,35.2097225421994,41.3,6.3,-3.2,179.0,-45.2,172.3
203,6.94026666666667,2026:04:27 12:22:32.940Z,32.1026248837397,35.2097225943868,41.9,6.2,-2.7,179.0,-45.2,172.3
204,6.97363333333333,2026:04:27 12:22:32.974Z,32.1026248837397,35.2097225943868,41.9,6.2,-2.7,179.0,-45.2,172.3
205,7.007,2026:04:27 12:22:33.007Z,32.1026248837397,35.2097225943868,41.9,6.2,-2.7,179.0,-45.2,172.3
206,7.04036666666667,2026:04:27 12:22:33.040Z,32.1026251074196,35.2097227709318,42.6,6.0,-1.5,178.9,-45.2,172.3
207,7.07373333333333,2026:04:27 12:22:33.074Z,32.1026251074196,35.2097227709318,42.6,6.0,-1.5,178.9,-45.2,172.3
208,7.1071,2026:04:27 12:22:33.107Z,32.1026251074196,35.2097227709318,42.6,6.0,-1.5,178.9,-45.2,172.3
209,7.14046666666667,2026:04:27 12:22:33.140Z,32.1026250892812,35.209722875348,43.2,5.3,-1.0,179.0,-45.2,172.3
210,7.17383333333333,2026:04:27 12:22:33.174Z,32.1026250892812,35.209722875348,43.2,5.3,-1.0,179.0,-45.2,172.3
211,7.2072,2026:04:27 12:22:33.207Z,32.1026250892812,35.209722875348,43.2,5.3,-1.0,179.0,-45.2,172.3
212,7.24056666666667,2026:04:27 12:22:33.241Z,32.1026253158721,35.2097230229866,43.8,5.1,-1.0,179.0,-45.2,172.3
213,7.27393333333333,2026:04:27 12:22:33.274Z,32.1026253158721,35.2097230229866,43.8,5.1,-1.0,179.0,-45.2,172.3
214,7.3073,2026:04:27 12:22:33.307Z,32.1026253158721,35.2097230229866,43.8,5.1,-1.0,179.0,-45.2,172.3
215,7.34066666666667,2026:04:27 12:22:33.341Z,32.1026252896627,35.2097231139233,44.5,5.4,-0.8,179.0,-45.2,172.3
216,7.37403333333333,2026:04:27 12:22:33.374Z,32.1026252896627,35.2097231139233,44.5,5.4,-0.8,179.0,-45.2,172.3
217,7.4074,2026:04:27 12:22:33.407Z,32.1026252896627,35.2097231139233,44.5,5.4,-0.8,179.0,-45.2,172.3
218,7.44076666666667,2026:04:27 12:22:33.441Z,32.1026254962238,35.209723159133,45.2,5.5,-0.9,179.0,-45.2,172.3
219,7.47413333333333,2026:04:27 12:22:33.474Z,32.1026254962238,35.209723159133,45.2,5.5,-0.9,179.0,-45.2,172.3
220,7.5075,2026:04:27 12:22:33.507Z,32.1026254962238,35.209723159133,45.2,5.5,-0.9,179.0,-45.2,172.3
221,7.54086666666667,2026:04:27 12:22:33.541Z,32.1026254813798,35.2097232181783,45.7,4.7,-2.0,178.9,-45.2,172.3
222,7.57423333333333,2026:04:27 12:22:33.574Z,32.1026254813798,35.2097232181783,45.7,4.7,-2.0,178.9,-45.2,172.3
223,7.6076,2026:04:27 12:22:33.608Z,32.1026254813798,35.2097232181783,45.7,4.7,-2.0,178.9,-45.2,172.3
224,7.64096666666667,2026:04:27 12:22:33.641Z,32.1026256443577,35.2097233451189,46.4,5.1,-1.0,179.2,-45.2,172.3
225,7.67433333333333,2026:04:27 12:22:33.674Z,32.1026256443577,35.2097233451189,46.4,5.1,-1.0,179.2,-45.2,172.3
226,7.7077,2026:04:27 12:22:33.708Z,32.1026256443577,35.2097233451189,46.4,5.1,-1.0,179.2,-45.2,172.3
227,7.74106666666667,2026:04:27 12:22:33.741Z,32.1026255763601,35.2097234667073,46.9,6.8,-0.3,179.3,-45.2,172.3
228,7.77443333333333,2026:04:27 12:22:33.774Z,32.1026255763601,35.2097234667073,46.9,6.8,-0.3,179.3,-45.2,172.3
229,7.8078,2026:04:27 12:22:33.808Z,32.1026255763601,35.2097234667073,46.9,6.8,-0.3,179.3,-45.2,172.3
230,7.84116666666667,2026:04:27 12:22:33.841Z,32.1026256957892,35.2097236941962,47.5,7.9,0.6,179.2,-45.2,172.3
231,7.87453333333333,2026:04:27 12:22:33.875Z,32.1026256957892,35.2097236941962,47.5,7.9,0.6,179.2,-45.2,172.3
232,7.9079,2026:04:27 12:22:33.908Z,32.1026256957892,35.2097236941962,47.5,7.9,0.6,179.2,-45.2,172.3
233,7.94126666666667,2026:04:27 12:22:33.941Z,32.1026256559866,35.2097237902001,48.0,8.2,1.6,179.3,-45.2,172.3
234,7.97463333333333,2026:04:27 12:22:33.975Z,32.1026256559866,35.2097237902001,48.0,8.2,1.6,179.3,-45.2,172.3
235,8.008,2026:04:27 12:22:34.008Z,32.1026256559866,35.2097237902001,48.0,8.2,1.6,179.3,-45.2,172.3
236,8.04136666666667,2026:04:27 12:22:34.041Z,32.1026257481309,35.2097240892013,48.7,7.4,1.7,179.2,-45.2,172.3
237,8.07473333333333,2026:04:27 12:22:34.075Z,32.1026257481309,35.2097240892013,48.7,7.4,1.7,179.2,-45.2,172.3
238,8.1081,2026:04:27 12:22:34.108Z,32.1026257481309,35.2097240892013,48.7,7.4,1.7,179.2,-45.2,172.3
239,8.14146666666667,2026:04:27 12:22:34.141Z,32.1026257067754,35.2097242170354,49.3,7.1,1.8,179.2,-45.2,172.3
240,8.17483333333333,2026:04:27 12:22:34.175Z,32.1026257067754,35.2097242170354,49.3,7.1,1.8,179.2,-45.2,172.3
241,8.2082,2026:04:27 12:22:34.208Z,32.1026257067754,35.2097242170354,49.3,7.1,1.8,179.2,-45.2,172.3
242,8.24156666666667,2026:04:27 12:22:34.242Z,32.1026258299359,35.2097245534333,49.9,8.1,1.7,179.3,-45.2,172.3
243,8.27493333333333,2026:04:27 12:22:34.275Z,32.1026258299359,35.2097245534333,49.9,8.1,1.7,179.3,-45.2,172.3
244,8.3083,2026:04:27 12:22:34.308Z,32.1026258299359,35.2097245534333,49.9,8.1,1.7,179.3,-45.2,172.3
245,8.34166666666667,2026:04:27 12:22:34.342Z,32.1026257834396,35.2097246850736,50.6,8.6,1.8,179.3,-45.2,172.3
246,8.37503333333333,2026:04:27 12:22:34.375Z,32.1026257834396,35.2097246850736,50.6,8.6,1.8,179.3,-45.2,172.3
247,8.4084,2026:04:27 12:22:34.408Z,32.1026257834396,35.2097246850736,50.6,8.6,1.8,179.3,-45.2,172.3
248,8.44176666666667,2026:04:27 12:22:34.442Z,32.1026258816779,35.2097249464047,51.2,8.4,2.1,179.2,-45.2,172.3
249,8.47513333333333,2026:04:27 12:22:34.475Z,32.1026258816779,35.2097249464047,51.2,8.4,2.1,179.2,-45.2,172.3
250,8.5085,2026:04:27 12:22:34.509Z,32.1026258816779,35.2097249464047,51.2,8.4,2.1,179.2,-45.2,172.3
251,8.54186666666667,2026:04:27 12:22:34.542Z,32.1026258750741,35.2097250851401,51.7,8.1,2.1,179.2,-45.2,172.3
252,8.57523333333333,2026:04:27 12:22:34.575Z,32.1026258750741,35.2097250851401,51.7,8.1,2.1,179.2,-45.2,172.3
253,8.6086,2026:04:27 12:22:34.609Z,32.1026258750741,35.2097250851401,51.7,8.1,2.1,179.2,-45.2,172.3
254,8.64196666666667,2026:04:27 12:22:34.642Z,32.1026260237114,35.2097253121277,52.5,7.7,1.9,179.2,-45.2,172.3
255,8.67533333333333,2026:04:27 12:22:34.675Z,32.1026260237114,35.2097253121277,52.5,7.7,1.9,179.2,-45.2,172.3
256,8.7087,2026:04:27 12:22:34.709Z,32.1026260237114,35.2097253121277,52.5,7.7,1.9,179.2,-45.2,172.3
257,8.74206666666667,2026:04:27 12:22:34.742Z,32.1026260384183,35.2097253942392,53.0,7.5,1.7,179.2,-45.2,172.3
258,8.77543333333333,2026:04:27 12:22:34.775Z,32.1026260384183,35.2097253942392,53.0,7.5,1.7,179.2,-45.2,172.3
259,8.8088,2026:04:27 12:22:34.809Z,32.1026260384183,35.2097253942392,53.0,7.5,1.7,179.2,-45.2,172.3
260,8.84216666666667,2026:04:27 12:22:34.842Z,32.1026261387858,35.2097255368228,53.7,7.4,1.4,179.1,-45.2,172.3
261,8.87553333333333,2026:04:27 12:22:34.876Z,32.1026261387858,35.2097255368228,53.7,7.4,1.4,179.1,-45.2,172.3
262,8.9089,2026:04:27 12:22:34.909Z,32.1026261387858,35.2097255368228,53.7,7.4,1.4,179.1,-45.2,172.3
263,8.94226666666667,2026:04:27 12:22:34.942Z,32.1026261116253,35.2097255971002,54.3,7.6,1.3,179.2,-45.2,172.3
264,8.97563333333333,2026:04:27 12:22:34.976Z,32.1026261116253,35.2097255971002,54.3,7.6,1.3,179.2,-45.2,172.3
265,9.009,2026:04:27 12:22:35.009Z,32.1026261116253,35.2097255971002,54.3,7.6,1.3,179.2,-45.2,172.3
266,9.04236666666667,2026:04:27 12:22:35.042Z,32.1026262129095,35.2097257559476,55.0,7.9,1.4,179.2,-45.2,172.3
267,9.07573333333333,2026:04:27 12:22:35.076Z,32.1026262129095,35.2097257559476,55.0,7.9,1.4,179.2,-45.2,172.3
268,9.1091,2026:04:27 12:22:35.109Z,32.1026262129095,35.2097257559476,55.0,7.9,1.4,179.2,-45.2,172.3
269,9.14246666666667,2026:04:27 12:22:35.142Z,32.1026261260666,35.2097258200297,55.6,8.1,1.5,179.2,-45.2,172.3
270,9.17583333333333,2026:04:27 12:22:35.176Z,32.1026261260666,35.2097258200297,55.6,8.1,1.5,179.2,-45.2,172.3
271,9.2092,2026:04:27 12:22:35.209Z,32.1026261260666,35.2097258200297,55.6,8.1,1.5,179.2,-45.2,172.3
272,9.24256666666667,2026:04:27 12:22:35.243Z,32.1026263341999,35.2097259166735,56.2,7.9,1.5,179.2,-45.2,172.3
273,9.27593333333333,2026:04:27 12:22:35.276Z,32.1026263341999,35.2097259166735,56.2,7.9,1.5,179.2,-45.2,172.3
274,9.3093,2026:04:27 12:22:35.309Z,32.1026263341999,35.2097259166735,56.2,7.9,1.5,179.2,-45.2,172.3
275,9.34266666666667,2026:04:27 12:22:35.343Z,32.1026263061784,35.2097259516902,56.8,8.0,1.8,179.3,-45.2,172.3
276,9.37603333333333,2026:04:27 12:22:35.376Z,32.1026263061784,35.2097259516902,56.8,8.0,1.8,179.3,-45.2,172.3
277,9.4094,2026:04:27 12:22:35.409Z,32.1026263061784,35.2097259516902,56.8,8.0,1.8,179.3,-45.2,172.3
278,9.44276666666667,2026:04:27 12:22:35.443Z,32.1026264857461,35.2097261684442,57.4,8.0,1.8,179.2,-45.2,172.3
279,9.47613333333333,2026:04:27 12:22:35.476Z,32.1026264857461,35.2097261684442,57.4,8.0,1.8,179.2,-45.2,172.3
280,9.5095,2026:04:27 12:22:35.510Z,32.1026264857461,35.2097261684442,57.4,8.0,1.8,179.2,-45.2,172.3
281,9.54286666666667,2026:04:27 12:22:35.543Z,32.1026264615008,35.209726224775,58.1,8.2,2.0,179.2,-45.2,172.3
282,9.57623333333333,2026:04:27 12:22:35.576Z,32.1026264615008,35.209726224775,58.1,8.2,2.0,179.2,-45.2,172.3
283,9.6096,2026:04:27 12:22:35.610Z,32.1026264615008,35.209726224775,58.1,8.2,2.0,179.2,-45.2,172.3
284,9.64296666666667,2026:04:27 12:22:35.643Z,32.1026266139659,35.20972639365,58.6,8.4,2.0,179.2,-45.2,172.3
285,9.67633333333333,2026:04:27 12:22:35.676Z,32.1026266139659,35.20972639365,58.6,8.4,2.0,179.2,-45.2,172.3
286,9.7097,2026:04:27 12:22:35.710Z,32.1026266139659,35.20972639365,58.6,8.4,2.0,179.2,-45.2,172.3
287,9.74306666666667,2026:04:27 12:22:35.743Z,32.1026265755342,35.2097264394416,59.3,8.4,1.8,179.2,-45.2,172.3
288,9.77643333333333,2026:04:27 12:22:35.776Z,32.1026265755342,35.2097264394416,59.3,8.4,1.8,179.2,-45.2,172.3
289,9.8098,2026:04:27 12:22:35.810Z,32.1026265755342,35.2097264394416,59.3,8.4,1.8,179.2,-45.2,172.3
290,9.84316666666667,2026:04:27 12:22:35.843Z,32.1026266933632,35.2097265912199,59.9,8.6,2.0,179.3,-45.2,172.3
291,9.87653333333333,2026:04:27 12:22:35.877Z,32.1026266933632,35.2097265912199,59.9,8.6,2.0,179.3,-45.2,172.3
292,9.9099,2026:04:27 12:22:35.910Z,32.1026266933632,35.2097265912199,59.9,8.6,2.0,179.3,-45.2,172.3
293,9.94326666666667,2026:04:27 12:22:35.943Z,32.1026266356129,35.2097266782572,60.5,9.0,2.3,179.2,-45.2,172.3
294,9.97663333333333,2026:04:27 12:22:35.977Z,32.1026266356129,35.2097266782572,60.5,9.0,2.3,179.2,-45.2,172.3
295,10.01,2026:04:27 12:22:36.010Z,32.1026266356129,35.2097266782572,60.5,9.0,2.3,179.2,-45.2,172.3
296,10.0433666666667,2026:04:27 12:22:36.043Z,32.1026268279704,35.2097267683661,61.2,9.2,1.9,179.3,-45.2,172.3
297,10.0767333333333,2026:04:27 12:22:36.077Z,32.1026268279704,35.2097267683661,61.2,9.2,1.9,179.3,-45.2,172.3
298,10.1101,2026:04:27 12:22:36.110Z,32.1026268279704,35.2097267683661,61.2,9.2,1.9,179.3,-45.2,172.3
299,10.1434666666667,2026:04:27 12:22:36.143Z,32.1026268133363,35.2097268322954,61.8,8.9,1.6,179.2,-45.2,172.3
300,10.1768333333333,2026:04:27 12:22:36.177Z,32.1026268133363,35.2097268322954,61.8,8.9,1.6,179.2,-45.2,172.3
301,10.2102,2026:04:27 12:22:36.210Z,32.1026268133363,35.2097268322954,61.8,8.9,1.6,179.2,-45.2,172.3
302,10.2435666666667,2026:04:27 12:22:36.244Z,32.1026270272787,35.2097269934613,62.4,8.3,1.6,179.2,-45.2,172.3
303,10.2769333333333,2026:04:27 12:22:36.277Z,32.1026270272787,35.2097269934613,62.4,8.3,1.6,179.2,-45.2,172.3
304,10.3103,2026:04:27 12:22:36.310Z,32.1026270272787,35.2097269934613,62.4,8.3,1.6,179.2,-45.2,172.3
305,10.3436666666667,2026:04:27 12:22:36.344Z,32.1026270493198,35.209727231969,62.9,8.0,2.0,179.2,-45.2,172.3
306,10.3770333333333,2026:04:27 12:22:36.377Z,32.1026270493198,35.209727231969,62.9,8.0,2.0,179.2,-45.2,172.3
307,10.4104,2026:04:27 12:22:36.410Z,32.1026270493198,35.209727231969,62.9,8.0,2.0,179.2,-45.2,172.3
308,10.4437666666667,2026:04:27 12:22:36.444Z,32.1026272809851,35.2097271740483,63.6,7.5,2.4,179.2,-45.2,172.3
309,10.4771333333333,2026:04:27 12:22:36.477Z,32.1026272809851,35.2097271740483,63.6,7.5,2.4,179.2,-45.2,172.3
310,10.5105,2026:04:27 12:22:36.510Z,32.1026272809851,35.2097271740483,63.6,7.5,2.4,179.2,-45.2,172.3
311,10.5438666666667,2026:04:27 12:22:36.544Z,32.1026273013212,35.2097273619822,64.1,7.5,2.9,179.3,-45.2,172.3
312,10.5772333333333,2026:04:27 12:22:36.577Z,32.1026273013212,35.2097273619822,64.1,7.5,2.9,179.3,-45.2,172.3
313,10.6106,2026:04:27 12:22:36.611Z,32.1026273013212,35.2097273619822,64.1,7.5,2.9,179.3,-45.2,172.3
314,10.6439666666667,2026:04:27 12:22:36.644Z,32.1026275891732,35.2097271629691,64.69999609375,7.8,2.8,179.2,-45.2,172.3
315,10.6773333333333,2026:04:27 12:22:36.677Z,32.1026275891732,35.2097271629691,64.69999609375,7.8,2.8,179.2,-45.2,172.3
316,10.7107,2026:04:27 12:22:36.711Z,32.1026275891732,35.2097271629691,64.69999609375,7.8,2.8,179.2,-45.2,172.3
317,10.7440666666667,2026:04:27 12:22:36.744Z,32.1026277132354,35.2097272421,65.4,7.9,2.8,179.2,-45.2,172.3
318,10.7774333333333,2026:04:27 12:22:36.777Z,32.1026277132354,35.2097272421,65.4,7.9,2.8,179.2,-45.2,172.3
319,10.8108,2026:04:27 12:22:36.811Z,32.1026277132354,35.2097272421,65.4,7.9,2.8,179.2,-45.2,172.3
320,10.8441666666667,2026:04:27 12:22:36.844Z,32.1026278626695,35.2097271097598,66.0,7.8,2.3,179.2,-45.2,172.3
321,10.8775333333333,2026:04:27 12:22:36.878Z,32.1026278626695,35.2097271097598,66.0,7.8,2.3,179.2,-45.2,172.3
322,10.9109,2026:04:27 12:22:36.911Z,32.1026278626695,35.2097271097598,66.0,7.8,2.3,179.2,-45.2,172.3
323,10.9442666666667,2026:04:27 12:22:36.944Z,32.1026280001684,35.2097271206184,66.6,7.1,1.9,179.2,-45.2,172.3
324,10.9776333333333,2026:04:27 12:22:36.978Z,32.1026280001684,35.2097271206184,66.6,7.1,1.9,179.2,-45.2,172.3
325,11.011,2026:04:27 12:22:37.011Z,32.1026280001684,35.2097271206184,66.6,7.1,1.9,179.2,-45.2,172.3
326,11.0443666666667,2026:04:27 12:22:37.044Z,32.1026281123575,35.2097268779403,67.3,6.8,1.8,179.1,-45.2,172.3
327,11.0777333333333,2026:04:27 12:22:37.078Z,32.1026281123575,35.2097268779403,67.3,6.8,1.8,179.1,-45.2,172.3
328,11.1111,2026:04:27 12:22:37.111Z,32.1026281123575,35.2097268779403,67.3,6.8,1.8,179.1,-45.2,172.3
329,11.1444666666667,2026:04:27 12:22:37.144Z,32.1026282130677,35.2097268639823,67.8,7.0,1.4,179.1,-45.2,172.3
330,11.1778333333333,2026:04:27 12:22:37.178Z,32.1026282130677,35.2097268639823,67.8,7.0,1.4,179.1,-45.2,172.3
331,11.2112,2026:04:27 12:22:37.211Z,32.1026282130677,35.2097268639823,67.8,7.0,1.4,179.1,-45.2,172.3
332,11.2445666666667,2026:04:27 12:22:37.245Z,32.1026282244738,35.2097266401014,68.4,7.3,1.3,179.1,-45.2,172.3
333,11.2779333333333,2026:04:27 12:22:37.278Z,32.1026282244738,35.2097266401014,68.4,7.3,1.3,179.1,-45.2,172.3
334,11.3113,2026:04:27 12:22:37.311Z,32.1026282244738,35.2097266401014,68.4,7.3,1.3,179.1,-45.2,172.3
335,11.3446666666667,2026:04:27 12:22:37.345Z,32.1026282737953,35.2097266558308,69.0,7.5,1.2,179.2,-45.2,172.3
336,11.3780333333333,2026:04:27 12:22:37.378Z,32.1026282737953,35.2097266558308,69.0,7.5,1.2,179.2,-45.2,172.3
337,11.4114,2026:04:27 12:22:37.411Z,32.1026282737953,35.2097266558308,69.0,7.5,1.2,179.2,-45.2,172.3
338,11.4447666666667,2026:04:27 12:22:37.445Z,32.1026282846296,35.2097264831767,69.7,7.7,1.4,179.2,-45.2,172.3
339,11.4781333333333,2026:04:27 12:22:37.478Z,32.1026282846296,35.2097264831767,69.7,7.7,1.4,179.2,-45.2,172.3
340,11.5115,2026:04:27 12:22:37.511Z,32.1026282846296,35.2097264831767,69.7,7.7,1.4,179.2,-45.2,172.3
341,11.5448666666667,2026:04:27 12:22:37.545Z,32.1026282969075,35.2097264805969,70.2,7.6,1.4,179.1,-45.2,172.3
342,11.5782333333333,2026:04:27 12:22:37.578Z,32.1026282969075,35.2097264805969,70.2,7.6,1.4,179.1,-45.2,172.3
343,11.6116,2026:04:27 12:22:37.612Z,32.1026282969075,35.2097264805969,70.2,7.6,1.4,179.1,-45.2,172.3
344,11.6449666666667,2026:04:27 12:22:37.645Z,32.1026283648258,35.2097262488548,70.9,7.5,1.4,179.1,-45.2,172.3
345,11.6783333333333,2026:04:27 12:22:37.678Z,32.1026283648258,35.2097262488548,70.9,7.5,1.4,179.1,-45.2,172.3
346,11.7117,2026:04:27 12:22:37.712Z,32.1026283648258,35.2097262488548,70.9,7.5,1.4,179.1,-45.2,172.3
347,11.7450666666667,2026:04:27 12:22:37.745Z,32.1026284274085,35.2097262145341,71.4,7.3,1.4,179.1,-45.2,172.3
348,11.7784333333333,2026:04:27 12:22:37.778Z,32.1026284274085,35.2097262145341,71.4,7.3,1.4,179.1,-45.2,172.3
349,11.8118,2026:04:27 12:22:37.812Z,32.1026284274085,35.2097262145341,71.4,7.3,1.4,179.1,-45.2,172.3
350,11.8451666666667,2026:04:27 12:22:37.845Z,32.1026285086715,35.209725999877,72.1,7.2,1.4,179.1,-45.2,172.3
351,11.8785333333333,2026:04:27 12:22:37.879Z,32.1026285086715,35.209725999877,72.1,7.2,1.4,179.1,-45.2,172.3
352,11.9119,2026:04:27 12:22:37.912Z,32.1026285086715,35.209725999877,72.1,7.2,1.4,179.1,-45.2,172.3
353,11.9452666666667,2026:04:27 12:22:37.945Z,32.1026285498256,35.2097259786903,72.7,7.1,1.3,179.2,-45.2,172.3
354,11.9786333333333,2026:04:27 12:22:37.979Z,32.1026285498256,35.2097259786903,72.7,7.1,1.3,179.2,-45.2,172.3
355,12.012,2026:04:27 12:22:38.012Z,32.1026285498256,35.2097259786903,72.7,7.1,1.3,179.2,-45.2,172.3
356,12.0453666666667,2026:04:27 12:22:38.045Z,32.1026286630022,35.2097258463824,73.3,7.2,1.1,179.2,-45.2,172.3
357,12.0787333333333,2026:04:27 12:22:38.079Z,32.1026286630022,35.2097258463824,73.3,7.2,1.1,179.2,-45.2,172.3
358,12.1121,2026:04:27 12:22:38.112Z,32.1026286630022,35.2097258463824,73.3,7.2,1.1,179.2,-45.2,172.3
359,12.1454666666667,2026:04:27 12:22:38.145Z,32.1026288435252,35.2097259622555,73.8,6.9,1.7,179.2,-45.2,172.3
360,12.1788333333333,2026:04:27 12:22:38.179Z,32.1026288435252,35.2097259622555,73.8,6.9,1.7,179.2,-45.2,172.3
361,12.2122,2026:04:27 12:22:38.212Z,32.1026288435252,35.2097259622555,73.8,6.9,1.7,179.2,-45.2,172.3
362,12.2455666666667,2026:04:27 12:22:38.246Z,32.1026287905194,35.2097255906139,74.4,6.5,1.9,179.2,-45.2,172.3
363,12.2789333333333,2026:04:27 12:22:38.279Z,32.1026287905194,35.2097255906139,74.4,6.5,1.9,179.2,-45.2,172.3
364,12.3123,2026:04:27 12:22:38.312Z,32.1026287905194,35.2097255906139,74.4,6.5,1.9,179.2,-45.2,172.3
365,12.3456666666667,2026:04:27 12:22:38.346Z,32.1026289286331,35.2097255482089,75.1,6.4,1.9,179.2,-45.2,172.3
366,12.3790333333333,2026:04:27 12:22:38.379Z,32.1026289286331,35.2097255482089,75.1,6.4,1.9,179.2,-45.2,172.3
367,12.4124,2026:04:27 12:22:38.412Z,32.1026289286331,35.2097255482089,75.1,6.4,1.9,179.2,-45.2,172.3
368,12.4457666666667,2026:04:27 12:22:38.446Z,32.1026288146211,35.2097253027743,75.7,6.6,1.9,179.1,-45.2,172.3
369,12.4791333333333,2026:04:27 12:22:38.479Z,32.1026288146211,35.2097253027743,75.7,6.6,1.9,179.1,-45.2,172.3
370,12.5125,2026:04:27 12:22:38.513Z,32.1026288146211,35.2097253027743,75.7,6.6,1.9,179.1,-45.2,172.3
371,12.5458666666667,2026:04:27 12:22:38.546Z,32.1026288918251,35.2097251974971,76.2,6.6,1.8,179.2,-45.2,172.3
372,12.5792333333333,2026:04:27 12:22:38.579Z,32.1026288918251,35.2097251974971,76.2,6.6,1.8,179.2,-45.2,172.3
373,12.6126,2026:04:27 12:22:38.613Z,32.1026288918251,35.2097251974971,76.2,6.6,1.8,179.2,-45.2,172.3
374,12.6459666666667,2026:04:27 12:22:38.646Z,32.1026287313682,35.2097250695274,76.8,6.8,1.7,179.1,-45.2,172.3
375,12.6793333333333,2026:04:27 12:22:38.679Z,32.1026287313682,35.2097250695274,76.8,6.8,1.7,179.1,-45.2,172.3
376,12.7127,2026:04:27 12:22:38.713Z,32.1026287313682,35.2097250695274,76.8,6.8,1.7,179.1,-45.2,172.3
377,12.7460666666667,2026:04:27 12:22:38.746Z,32.1026287158345,35.2097250317522,77.4,7.0,1.5,179.2,-45.2,172.3
378,12.7794333333333,2026:04:27 12:22:38.779Z,32.1026287158345,35.2097250317522,77.4,7.0,1.5,179.2,-45.2,172.3
379,12.8128,2026:04:27 12:22:38.813Z,32.1026287158345,35.2097250317522,77.4,7.0,1.5,179.2,-45.2,172.3
380,12.8461666666667,2026:04:27 12:22:38.846Z,32.1026286445082,35.2097248789767,78.1,7.0,1.3,179.2,-45.2,172.3
381,12.8795333333333,2026:04:27 12:22:38.880Z,32.1026286445082,35.2097248789767,78.1,7.0,1.3,179.2,-45.2,172.3
382,12.9129,2026:04:27 12:22:38.913Z,32.1026286445082,35.2097248789767,78.1,7.0,1.3,179.2,-45.2,172.3
383,12.9462666666667,2026:04:27 12:22:38.946Z,32.1026286106304,35.2097248586699,78.7,7.2,1.6,179.2,-45.2,172.3
384,12.9796333333333,2026:04:27 12:22:38.980Z,32.1026286106304,35.2097248586699,78.7,7.2,1.6,179.2,-45.2,172.3
385,13.013,2026:04:27 12:22:39.013Z,32.1026286106304,35.2097248586699,78.7,7.2,1.6,179.2,-45.2,172.3
386,13.0463666666667,2026:04:27 12:22:39.046Z,32.1026286323524,35.2097246752237,79.2,7.2,1.6,179.2,-45.2,172.3
387,13.0797333333333,2026:04:27 12:22:39.080Z,32.1026286323524,35.2097246752237,79.2,7.2,1.6,179.2,-45.2,172.3
388,13.1131,2026:04:27 12:22:39.113Z,32.1026286323524,35.2097246752237,79.2,7.2,1.6,179.2,-45.2,172.3
389,13.1464666666667,2026:04:27 12:22:39.146Z,32.1026286657589,35.2097246367206,79.9,7.2,1.6,179.2,-45.2,172.3
390,13.1798333333333,2026:04:27 12:22:39.180Z,32.1026286657589,35.2097246367206,79.9,7.2,1.6,179.2,-45.2,172.3
391,13.2132,2026:04:27 12:22:39.213Z,32.1026286657589,35.2097246367206,79.9,7.2,1.6,179.2,-45.2,172.3
392,13.2465666666667,2026:04:27 12:22:39.247Z,32.1026285878546,35.2097244725115,80.5,7.2,1.6,179.2,-45.2,172.3
393,13.2799333333333,2026:04:27 12:22:39.280Z,32.1026285878546,35.2097244725115,80.5,7.2,1.6,179.2,-45.2,172.3
394,13.3133,2026:04:27 12:22:39.313Z,32.1026285878546,35.2097244725115,80.5,7.2,1.6,179.2,-45.2,172.3
395,13.3466666666667,2026:04:27 12:22:39.347Z,32.1026285758316,35.2097243050095,81.1,7.2,1.6,179.2,-45.2,172.3
396,13.3800333333333,2026:04:27 12:22:39.380Z,32.1026285758316,35.2097243050095,81.1,7.2,1.6,179.2,-45.2,172.3
397,13.4134,2026:04:27 12:22:39.413Z,32.1026285758316,35.2097243050095,81.1,7.2,1.6,179.2,-45.2,172.3
398,13.4467666666667,2026:04:27 12:22:39.447Z,32.1026284690746,35.2097242096164,81.7,7.1,1.5,179.2,-45.2,172.3
399,13.4801333333333,2026:04:27 12:22:39.480Z,32.1026284690746,35.2097242096164,81.7,7.1,1.5,179.2,-45.2,172.3
400,13.5135,2026:04:27 12:22:39.513Z,32.1026284690746,35.2097242096164,81.7,7.1,1.5,179.2,-45.2,172.3
401,13.5468666666667,2026:04:27 12:22:39.547Z,32.1026284090923,35.2097240387192,82.3,7.4,1.1,179.1,-45.2,172.3
402,13.5802333333333,2026:04:27 12:22:39.580Z,32.1026284090923,35.2097240387192,82.3,7.4,1.1,179.1,-45.2,172.3
403,13.6136,2026:04:27 12:22:39.614Z,32.1026284090923,35.2097240387192,82.3,7.4,1.1,179.1,-45.2,172.3
404,13.6469666666667,2026:04:27 12:22:39.647Z,32.1026283533062,35.2097240548594,82.9,7.7,1.1,179.1,-45.2,172.3
405,13.6803333333333,2026:04:27 12:22:39.680Z,32.1026283533062,35.2097240548594,82.9,7.7,1.1,179.1,-45.2,172.3
406,13.7137,2026:04:27 12:22:39.714Z,32.1026283533062,35.2097240548594,82.9,7.7,1.1,179.1,-45.2,172.3
407,13.7470666666667,2026:04:27 12:22:39.747Z,32.1026283235989,35.2097239581868,83.5,7.7,0.9,179.1,-45.2,172.3
408,13.7804333333333,2026:04:27 12:22:39.780Z,32.1026283235989,35.2097239581868,83.5,7.7,0.9,179.1,-45.2,172.3
409,13.8138,2026:04:27 12:22:39.814Z,32.1026283235989,35.2097239581868,83.5,7.7,0.9,179.1,-45.2,172.3
410,13.8471666666667,2026:04:27 12:22:39.847Z,32.1026283368557,35.2097240015332,84.1,7.6,0.8,179.1,-45.2,172.3
411,13.8805333333333,2026:04:27 12:22:39.881Z,32.1026283368557,35.2097240015332,84.1,7.6,0.8,179.1,-45.2,172.3
412,13.9139,2026:04:27 12:22:39.914Z,32.1026283368557,35.2097240015332,84.1,7.6,0.8,179.1,-45.2,172.3
413,13.9472666666667,2026:04:27 12:22:39.947Z,32.1026283146732,35.2097240025993,84.8,7.6,0.8,179.1,-45.2,172.3
414,13.9806333333333,2026:04:27 12:22:39.981Z,32.1026283146732,35.2097240025993,84.8,7.6,0.8,179.1,-45.2,172.3
415,14.014,2026:04:27 12:22:40.014Z,32.1026283146732,35.2097240025993,84.8,7.6,0.8,179.1,-45.2,172.3
416,14.0473666666667,2026:04:27 12:22:40.047Z,32.1026283088619,35.2097240002527,85.3,6.9,1.1,179.1,-45.2,172.3
417,14.0807333333333,2026:04:27 12:22:40.081Z,32.1026283088619,35.2097240002527,85.3,6.9,1.1,179.1,-45.2,172.3
418,14.1141,2026:04:27 12:22:40.114Z,32.1026283088619,35.2097240002527,85.3,6.9,1.1,179.1,-45.2,172.3
419,14.1474666666667,2026:04:27 12:22:40.147Z,32.102628339199,35.2097238092652,86.0,6.4,1.0,179.1,-45.2,172.3
420,14.1808333333333,2026:04:27 12:22:40.181Z,32.102628339199,35.2097238092652,86.0,6.4,1.0,179.1,-45.2,172.3
421,14.2142,2026:04:27 12:22:40.214Z,32.102628339199,35.2097238092652,86.0,6.4,1.0,179.1,-45.2,172.3
422,14.2475666666667,2026:04:27 12:22:40.248Z,32.1026283993505,35.2097237228196,86.5,6.9,0.7,179.1,-45.2,172.3
423,14.2809333333333,2026:04:27 12:22:40.281Z,32.1026283993505,35.2097237228196,86.5,6.9,0.7,179.1,-45.2,172.3
424,14.3143,2026:04:27 12:22:40.314Z,32.1026283993505,35.2097237228196,86.5,6.9,0.7,179.1,-45.2,172.3
425,14.3476666666667,2026:04:27 12:22:40.348Z,32.1026283575816,35.209723598798,87.0,8.1,0.7,179.1,-45.2,172.3
426,14.3810333333333,2026:04:27 12:22:40.381Z,32.1026283575816,35.209723598798,87.0,8.1,0.7,179.1,-45.2,172.3
427,14.4144,2026:04:27 12:22:40.414Z,32.1026283575816,35.209723598798,87.0,8.1,0.7,179.1,-45.2,172.3
428,14.4477666666667,2026:04:27 12:22:40.448Z,32.1026282631218,35.2097236315989,87.4,8.9,0.8,179.1,-45.2,172.3
429,14.4811333333333,2026:04:27 12:22:40.481Z,32.1026282631218,35.2097236315989,87.4,8.9,0.8,179.1,-45.2,172.3
430,14.5145,2026:04:27 12:22:40.514Z,32.1026282631218,35.2097236315989,87.4,8.9,0.8,179.1,-45.2,172.3
431,14.5478666666667,2026:04:27 12:22:40.548Z,32.1026281470171,35.2097234971148,87.7,9.4,0.8,179.1,-45.2,172.3
432,14.5812333333333,2026:04:27 12:22:40.581Z,32.1026281470171,35.2097234971148,87.7,9.4,0.8,179.1,-45.2,172.3
433,14.6146,2026:04:27 12:22:40.615Z,32.1026281470171,35.2097234971148,87.7,9.4,0.8,179.1,-45.2,172.3
434,14.6479666666667,2026:04:27 12:22:40.648Z,32.1026280778114,35.2097236944415,88.1,9.5,0.8,179.1,-45.2,172.3
435,14.6813333333333,2026:04:27 12:22:40.681Z,32.1026280778114,35.2097236944415,88.1,9.5,0.8,179.1,-45.2,172.3
436,14.7147,2026:04:27 12:22:40.715Z,32.1026280778114,35.2097236944415,88.1,9.5,0.8,179.1,-45.2,172.3
437,14.7480666666667,2026:04:27 12:22:40.748Z,32.1026278262427,35.2097236632061,88.3,10.1,0.9,179.1,-45.2,172.3
438,14.7814333333333,2026:04:27 12:22:40.781Z,32.1026278262427,35.2097236632061,88.3,10.1,0.9,179.1,-45.2,172.3
439,14.8148,2026:04:27 12:22:40.815Z,32.1026278262427,35.2097236632061,88.3,10.1,0.9,179.1,-45.2,172.3
440,14.8481666666667,2026:04:27 12:22:40.848Z,32.1026279064368,35.2097238220515,88.5,10.6,0.8,179.1,-45.2,172.3
441,14.8815333333333,2026:04:27 12:22:40.882Z,32.1026279064368,35.2097238220515,88.5,10.6,0.8,179.1,-45.2,172.3
442,14.9149,2026:04:27 12:22:40.915Z,32.1026279064368,35.2097238220515,88.5,10.6,0.8,179.1,-45.2,172.3
443,14.9482666666667,2026:04:27 12:22:40.948Z,32.1026277254083,35.2097238459641,88.7,11.1,0.9,179.1,-45.2,172.3
444,14.9816333333333,2026:04:27 12:22:40.982Z,32.1026277254083,35.2097238459641,88.7,11.1,0.9,179.1,-45.2,172.3
445,15.015,2026:04:27 12:22:41.015Z,32.1026277254083,35.2097238459641,88.7,11.1,0.9,179.1,-45.2,172.3
446,15.0483666666667,2026:04:27 12:22:41.048Z,32.1026277782749,35.2097239909957,88.9,11.7,1.0,179.1,-45.2,172.3
447,15.0817333333333,2026:04:27 12:22:41.082Z,32.1026277782749,35.2097239909957,88.9,11.7,1.0,179.1,-45.2,172.3
448,15.1151,2026:04:27 12:22:41.115Z,32.1026277782749,35.2097239909957,88.9,11.7,1.0,179.1,-45.2,172.3
449,15.1484666666667,2026:04:27 12:22:41.148Z,32.1026275315985,35.2097239739104,89.0,12.0,1.0,179.1,-45.2,172.3
450,15.1818333333333,2026:04:27 12:22:41.182Z,32.1026275315985,35.2097239739104,89.0,12.0,1.0,179.1,-45.2,172.3
451,15.2152,2026:04:27 12:22:41.215Z,32.1026275315985,35.2097239739104,89.0,12.0,1.0,179.1,-45.2,172.3
452,15.2485666666667,2026:04:27 12:22:41.249Z,32.1026275106605,35.2097241961389,89.0,12.2,1.2,179.2,-45.2,172.3
453,15.2819333333333,2026:04:27 12:22:41.282Z,32.1026275106605,35.2097241961389,89.0,12.2,1.2,179.2,-45.2,172.3
454,15.3153,2026:04:27 12:22:41.315Z,32.1026275106605,35.2097241961389,89.0,12.2,1.2,179.2,-45.2,172.3
455,15.3486666666667,2026:04:27 12:22:41.349Z,32.1026273675067,35.2097242460786,89.0,11.4,1.4,179.2,-45.2,172.3
456,15.3820333333333,2026:04:27 12:22:41.382Z,32.1026273675067,35.2097242460786,89.0,11.4,1.4,179.2,-45.2,172.3
457,15.4154,2026:04:27 12:22:41.415Z,32.1026273675067,35.2097242460786,89.0,11.4,1.4,179.2,-45.2,172.3
458,15.4487666666667,2026:04:27 12:22:41.449Z,32.1026274951696,35.2097244383643,89.1,9.3,1.5,179.1,-45.2,172.3
459,15.4821333333333,2026:04:27 12:22:41.482Z,32.1026274951696,35.2097244383643,89.1,9.3,1.5,179.1,-45.2,172.3
460,15.5155,2026:04:27 12:22:41.516Z,32.1026274951696,35.2097244383643,89.1,9.3,1.5,179.1,-45.2,172.3
461,15.5488666666667,2026:04:27 12:22:41.549Z,32.1026273293149,35.2097245611203,89.1,7.2,1.6,179.0,-45.2,172.3
462,15.5822333333333,2026:04:27 12:22:41.582Z,32.1026273293149,35.2097245611203,89.1,7.2,1.6,179.0,-45.2,172.3
463,15.6156,2026:04:27 12:22:41.616Z,32.1026273293149,35.2097245611203,89.1,7.2,1.6,179.0,-45.2,172.3
464,15.6489666666667,2026:04:27 12:22:41.649Z,32.1026275899614,35.2097247289279,89.2,7.6,1.9,179.1,-45.2,172.3
465,15.6823333333333,2026:04:27 12:22:41.682Z,32.1026275899614,35.2097247289279,89.2,7.6,1.9,179.1,-45.2,172.3
466,15.7157,2026:04:27 12:22:41.716Z,32.1026275899614,35.2097247289279,89.2,7.6,1.9,179.1,-45.2,172.3
467,15.7490666666667,2026:04:27 12:22:41.749Z,32.1026275552825,35.2097248854427,89.4,8.7,2.0,179.1,-45.2,172.3
468,15.7824333333333,2026:04:27 12:22:41.782Z,32.1026275552825,35.2097248854427,89.4,8.7,2.0,179.1,-45.2,172.3
469,15.8158,2026:04:27 12:22:41.816Z,32.1026275552825,35.2097248854427,89.4,8.7,2.0,179.1,-45.2,172.3
470,15.8491666666667,2026:04:27 12:22:41.849Z,32.1026278670584,35.2097247397577,89.6,9.3,2.0,179.2,-45.2,172.3
471,15.8825333333333,2026:04:27 12:22:41.883Z,32.1026278670584,35.2097247397577,89.6,9.3,2.0,179.2,-45.2,172.3
472,15.9159,2026:04:27 12:22:41.916Z,32.1026278670584,35.2097247397577,89.6,9.3,2.0,179.2,-45.2,172.3
473,15.9492666666667,2026:04:27 12:22:41.949Z,32.1026279129913,35.2097248141262,89.8,8.9,2.1,179.2,-45.2,172.3
474,15.9826333333333,2026:04:27 12:22:41.983Z,32.1026279129913,35.2097248141262,89.8,8.9,2.1,179.2,-45.2,172.3
475,16.016,2026:04:27 12:22:42.016Z,32.1026279129913,35.2097248141262,89.8,8.9,2.1,179.2,-45.2,172.3
476,16.0493666666667,2026:04:27 12:22:42.049Z,32.1026284417941,35.2097245814862,90.1,7.9,2.1,179.2,-45.2,172.3
477,16.0827333333333,2026:04:27 12:22:42.083Z,32.1026284417941,35.2097245814862,90.1,7.9,2.1,179.2,-45.2,172.3
478,16.1161,2026:04:27 12:22:42.116Z,32.1026284417941,35.2097245814862,90.1,7.9,2.1,179.2,-45.2,172.3
479,16.1494666666667,2026:04:27 12:22:42.149Z,32.1026285516784,35.2097246442831,90.4,7.3,2.2,179.2,-45.2,172.3
480,16.1828333333333,2026:04:27 12:22:42.183Z,32.1026285516784,35.2097246442831,90.4,7.3,2.2,179.2,-45.2,172.3
481,16.2162,2026:04:27 12:22:42.216Z,32.1026285516784,35.2097246442831,90.4,7.3,2.2,179.2,-45.2,172.3
482,16.2495666666667,2026:04:27 12:22:42.250Z,32.1026291205944,35.2097243843183,90.8,6.6,1.6,179.2,-45.2,172.3
483,16.2829333333333,2026:04:27 12:22:42.283Z,32.1026291205944,35.2097243843183,90.8,6.6,1.6,179.2,-45.2,172.3
484,16.3163,2026:04:27 12:22:42.316Z,32.1026291205944,35.2097243843183,90.8,6.6,1.6,179.2,-45.2,172.3
485,16.3496666666667,2026:04:27 12:22:42.350Z,32.1026293144427,35.2097245040542,91.2,6.0,1.2,179.2,-45.2,172.3
486,16.3830333333333,2026:04:27 12:22:42.383Z,32.1026293144427,35.2097245040542,91.2,6.0,1.2,179.2,-45.2,172.3
487,16.4164,2026:04:27 12:22:42.416Z,32.1026293144427,35.2097245040542,91.2,6.0,1.2,179.2,-45.2,172.3
488,16.4497666666667,2026:04:27 12:22:42.450Z,32.1026296662761,35.2097240773281,91.7,6.0,1.5,179.2,-45.2,172.3
489,16.4831333333333,2026:04:27 12:22:42.483Z,32.1026296662761,35.2097240773281,91.7,6.0,1.5,179.2,-45.2,172.3
490,16.5165,2026:04:27 12:22:42.516Z,32.1026296662761,35.2097240773281,91.7,6.0,1.5,179.2,-45.2,172.3
491,16.5498666666667,2026:04:27 12:22:42.550Z,32.1026298519206,35.2097241508764,92.2,6.2,1.7,179.2,-45.2,172.3
492,16.5832333333333,2026:04:27 12:22:42.583Z,32.1026298519206,35.2097241508764,92.2,6.2,1.7,179.2,-45.2,172.3
493,16.6166,2026:04:27 12:22:42.617Z,32.1026298519206,35.2097241508764,92.2,6.2,1.7,179.2,-45.2,172.3
494,16.6499666666667,2026:04:27 12:22:42.650Z,32.1026302068898,35.2097237907669,92.7,6.5,2.1,179.2,-45.2,172.3
495,16.6833333333333,2026:04:27 12:22:42.683Z,32.1026302068898,35.2097237907669,92.7,6.5,2.1,179.2,-45.2,172.3
496,16.7167,2026:04:27 12:22:42.717Z,32.1026302068898,35.2097237907669,92.7,6.5,2.1,179.2,-45.2,172.3
497,16.7500666666667,2026:04:27 12:22:42.750Z,32.1026303843176,35.2097238239714,93.2,6.2,2.2,179.2,-45.2,172.3
498,16.7834333333333,2026:04:27 12:22:42.783Z,32.1026303843176,35.2097238239714,93.2,6.2,2.2,179.2,-45.2,172.3
499,16.8168,2026:04:27 12:22:42.817Z,32.1026303843176,35.2097238239714,93.2,6.2,2.2,179.2,-45.2,172.3
500,16.8501666666667,2026:04:27 12:22:42.850Z,32.102630783142,35.2097231922578,93.8,5.8,1.9,179.2,-45.2,172.3
501,16.8835333333333,2026:04:27 12:22:42.884Z,32.102630783142,35.2097231922578,93.8,5.8,1.9,179.2,-45.2,172.3
502,16.9169,2026:04:27 12:22:42.917Z,32.102630783142,35.2097231922578,93.8,5.8,1.9,179.2,-45.2,172.3
503,16.9502666666667,2026:04:27 12:22:42.950Z,32.1026309311025,35.209723064877,94.3,5.6,1.6,179.1,-45.2,172.3
504,16.9836333333333,2026:04:27 12:22:42.984Z,32.1026309311025,35.209723064877,94.3,5.6,1.6,179.1,-45.2,172.3
505,17.017,2026:04:27 12:22:43.017Z,32.1026309311025,35.209723064877,94.3,5.6,1.6,179.1,-45.2,172.3
506,17.0503666666667,2026:04:27 12:22:43.050Z,32.1026311279689,35.2097226118448,95.0,5.8,1.1,179.1,-45.2,172.3
507,17.0837333333333,2026:04:27 12:22:43.084Z,32.1026311279689,35.2097226118448,95.0,5.8,1.1,179.1,-45.2,172.3
508,17.1171,2026:04:27 12:22:43.117Z,32.1026311279689,35.2097226118448,95.0,5.8,1.1,179.1,-45.2,172.3
509,17.1504666666667,2026:04:27 12:22:43.150Z,32.1026312151995,35.2097223040126,95.6,6.1,0.7,179.2,-45.2,172.3
510,17.1838333333333,2026:04:27 12:22:43.184Z,32.1026312151995,35.2097223040126,95.6,6.1,0.7,179.2,-45.2,172.3
511,17.2172,2026:04:27 12:22:43.217Z,32.1026312151995,35.2097223040126,95.6,6.1,0.7,179.2,-45.2,172.3
512,17.2505666666667,2026:04:27 12:22:43.251Z,32.1026314332438,35.2097223734113,96.1,6.5,0.3,179.1,-45.2,172.3
513,17.2839333333333,2026:04:27 12:22:43.284Z,32.1026314332438,35.2097223734113,96.1,6.5,0.3,179.1,-45.2,172.3
514,17.3173,2026:04:27 12:22:43.317Z,32.1026314332438,35.2097223734113,96.1,6.5,0.3,179.1,-45.2,172.3
515,17.3506666666667,2026:04:27 12:22:43.351Z,32.1026315467546,35.209722348817,96.8,6.7,0.6,179.1,-45.2,172.3
516,17.3840333333333,2026:04:27 12:22:43.384Z,32.1026315467546,35.209722348817,96.8,6.7,0.6,179.1,-45.2,172.3
517,17.4174,2026:04:27 12:22:43.417Z,32.1026315467546,35.209722348817,96.8,6.7,0.6,179.1,-45.2,172.3
518,17.4507666666667,2026:04:27 12:22:43.451Z,32.1026317500663,35.2097222061295,97.3,6.4,0.8,179.1,-45.2,172.3
519,17.4841333333333,2026:04:27 12:22:43.484Z,32.1026317500663,35.2097222061295,97.3,6.4,0.8,179.1,-45.2,172.3
520,17.5175,2026:04:27 12:22:43.517Z,32.1026317500663,35.2097222061295,97.3,6.4,0.8,179.1,-45.2,172.3
521,17.5508666666667,2026:04:27 12:22:43.551Z,32.1026320210243,35.2097222693686,98.0,6.2,1.3,179.1,-45.2,172.3
522,17.5842333333333,2026:04:27 12:22:43.584Z,32.1026320210243,35.2097222693686,98.0,6.2,1.3,179.1,-45.2,172.3
523,17.6176,2026:04:27 12:22:43.618Z,32.1026320210243,35.2097222693686,98.0,6.2,1.3,179.1,-45.2,172.3
524,17.6509666666667,2026:04:27 12:22:43.651Z,32.1026320601864,35.2097219833778,98.6,6.4,1.4,179.1,-45.2,172.3
525,17.6843333333333,2026:04:27 12:22:43.684Z,32.1026320601864,35.2097219833778,98.6,6.4,1.4,179.1,-45.2,172.3
526,17.7177,2026:04:27 12:22:43.718Z,32.1026320601864,35.2097219833778,98.6,6.4,1.4,179.1,-45.2,172.3
527,17.7510666666667,2026:04:27 12:22:43.751Z,32.1026322237898,35.2097219413725,99.2,6.8,1.5,179.2,-45.2,172.3
528,17.7844333333333,2026:04:27 12:22:43.784Z,32.1026322237898,35.2097219413725,99.2,6.8,1.5,179.2,-45.2,172.3
529,17.8178,2026:04:27 12:22:43.818Z,32.1026322237898,35.2097219413725,99.2,6.8,1.5,179.2,-45.2,172.3
530,17.8511666666667,2026:04:27 12:22:43.851Z,32.1026320330773,35.2097217955892,99.8,6.4,1.5,179.2,-45.2,172.3
531,17.8845333333333,2026:04:27 12:22:43.885Z,32.1026320330773,35.2097217955892,99.8,6.4,1.5,179.2,-45.2,172.3
532,17.9179,2026:04:27 12:22:43.918Z,32.1026320330773,35.2097217955892,99.8,6.4,1.5,179.2,-45.2,172.3
533,17.9512666666667,2026:04:27 12:22:43.951Z,32.1026322912862,35.2097218055828,100.5,6.2,1.6,179.1,-45.2,172.3
534,17.9846333333333,2026:04:27 12:22:43.985Z,32.1026322912862,35.2097218055828,100.5,6.2,1.6,179.1,-45.2,172.3
535,18.018,2026:04:27 12:22:44.018Z,32.1026322912862,35.2097218055828,100.5,6.2,1.6,179.1,-45.2,172.3
536,18.0513666666667,2026:04:27 12:22:44.051Z,32.1026322085516,35.2097218197948,101.0,6.2,1.5,179.2,-45.2,172.3
537,18.0847333333333,2026:04:27 12:22:44.085Z,32.1026322085516,35.2097218197948,101.0,6.2,1.5,179.2,-45.2,172.3
538,18.1181,2026:04:27 12:22:44.118Z,32.1026322085516,35.2097218197948,101.0,6.2,1.5,179.2,-45.2,172.3
539,18.1514666666667,2026:04:27 12:22:44.151Z,32.1026323884171,35.2097220141903,101.6,6.5,1.7,179.2,-45.2,172.3
540,18.1848333333333,2026:04:27 12:22:44.185Z,32.1026323884171,35.2097220141903,101.6,6.5,1.7,179.2,-45.2,172.3
541,18.2182,2026:04:27 12:22:44.218Z,32.1026323884171,35.2097220141903,101.6,6.5,1.7,179.2,-45.2,172.3
542,18.2515666666667,2026:04:27 12:22:44.252Z,32.1026319518893,35.2097216557332,102.1,6.7,2.3,179.2,-45.2,172.3
543,18.2849333333333,2026:04:27 12:22:44.285Z,32.1026319518893,35.2097216557332,102.1,6.7,2.3,179.2,-45.2,172.3
544,18.3183,2026:04:27 12:22:44.318Z,32.1026319518893,35.2097216557332,102.1,6.7,2.3,179.2,-45.2,172.3
545,18.3516666666667,2026:04:27 12:22:44.352Z,32.1026320254861,35.2097216249083,102.6,6.8,2.1,179.2,-45.2,172.3
546,18.3850333333333,2026:04:27 12:22:44.385Z,32.1026320254861,35.2097216249083,102.6,6.8,2.1,179.2,-45.2,172.3
547,18.4184,2026:04:27 12:22:44.418Z,32.1026320254861,35.2097216249083,102.6,6.8,2.1,179.2,-45.2,172.3
548,18.4517666666667,2026:04:27 12:22:44.452Z,32.1026317347232,35.2097213605975,103.3,6.8,1.5,179.1,-45.2,172.3
549,18.4851333333333,2026:04:27 12:22:44.485Z,32.1026317347232,35.2097213605975,103.3,6.8,1.5,179.1,-45.2,172.3
550,18.5185,2026:04:27 12:22:44.519Z,32.1026317347232,35.2097213605975,103.3,6.8,1.5,179.1,-45.2,172.3
