frame_count,sample_time,gps_datetime,latitude,longitude,rel_alt,drone_roll,drone_pitch,drone_yaw,gimbal_pitch,gimbal_yaw
1,0.0,2026:04:27 12:27:35.000Z,32.1024824483996,35.2096866466701,49.8,4.3,7.0,-157.0,-45.3,-150.1
2,0.0333666666666667,2026:04:27 12:27:35.033Z,32.1024825615483,35.2096866736076,49.8,4.0,6.8,-157.0,-45.3,-150.1
3,0.0667333333333333,2026:04:27 12:27:35.067Z,32.1024825615483,35.2096866736076,49.8,4.0,6.8,-157.0,-45.3,-150.1
4,0.1001,2026:04:27 12:27:35.100Z,32.1024825615483,35.2096866736076,49.8,4.0,6.8,-157.0,-45.3,-150.1
5,0.133466666666667,2026:04:27 12:27:35.133Z,32.1024826010638,35.209686666401,49.8,4.0,6.7,-157.0,-45.3,-150.1
6,0.166833333333333,2026:04:27 12:27:35.167Z,32.1024826010638,35.209686666401,49.8,4.0,6.7,-157.0,-45.3,-150.1
7,0.2002,2026:04:27 12:27:35.200Z,32.1024826010638,35.209686666401,49.8,4.0,6.7,-157.0,-45.3,-150.1
8,0.233566666666667,2026:04:27 12:27:35.234Z,32.1024826956286,35.2096866866427,49.8,3.8,6.7,-157.0,-45.3,-150.1
9,0.266933333333333,2026:04:27 12:27:35.267Z,32.1024826956286,35.2096866866427,49.8,3.8,6.7,-157.0,-45.3,-150.1
10,0.3003,2026:04:27 12:27:35.300Z,32.1024826956286,35.2096866866427,49.8,3.8,6.7,-157.0,-45.3,-150.1
11,0.333666666666667,2026:04:27 12:27:35.334Z,32.1024827391539,35.2096866930198,49.8,3.5,6.7,-157.1,-45.3,-150.1
12,0.367033333333333,2026:04:27 12:27:35.367Z,32.1024827391539,35.2096866930198,49.8,3.5,6.7,-157.1,-45.3,-150.1
13,0.4004,2026:04:27 12:27:35.400Z,32.1024827391539,35.2096866930198,49.8,3.5,6.7,-157.1,-45.3,-150.1
14,0.433766666666667,2026:04:27 12:27:35.434Z,32.1024827855153,35.2096865778029,49.8,3.5,6.7,-157.1,-45.3,-150.1
15,0.467133333333333,2026:04:27 12:27:35.467Z,32.1024827855153,35.2096865778029,49.8,3.5,6.7,-157.1,-45.3,-150.1
16,0.5005,2026:04:27 12:27:35.500Z,32.1024827855153,35.2096865778029,49.8,3.5,6.7,-157.1,-45.3,-150.1
17,0.533866666666667,2026:04:27 12:27:35.534Z,32.1024828148692,35.2096865655113,49.8,3.5,6.6,-157.1,-45.3,-150.1
18,0.567233333333333,2026:04:27 12:27:35.567Z,32.1024828148692,35.2096865655113,49.8,3.5,6.6,-157.1,-45.3,-150.1
19,0.6006,2026:04:27 12:27:35.601Z,32.1024828148692,35.2096865655113,49.8,3.5,6.6,-157.1,-45.3,-150.1
20,0.633966666666667,2026:04:27 12:27:35.634Z,32.1024827362408,35.2096863831517,49.8,3.6,6.4,-157.1,-45.3,-150.1
21,0.667333333333333,2026:04:27 12:27:35.667Z,32.1024827362408,35.2096863831517,49.8,3.6,6.4,-157.1,-45.3,-150.1
22,0.7007,2026:04:27 12:27:35.701Z,32.1024827362408,35.2096863831517,49.8,3.6,6.4,-157.1,-45.3,-150.1
23,0.734066666666667,2026:04:27 12:27:35.734Z,32.1024827318712,35.2096863299191,49.8,3.7,6.2,-157.1,-45.3,-150.1
24,0.767433333333333,2026:04:27 12:27:35.767Z,32.1024827318712,35.2096863299191,49.8,3.7,6.2,-157.1,-45.3,-150.1
25,0.8008,2026:04:27 12:27:35.801Z,32.1024827318712,35.2096863299191,49.8,3.7,6.2,-157.1,-45.3,-150.1
26,0.834166666666667,2026:04:27 12:27:35.834Z,32.1024828404446,35.209686279569,49.8,3.9,6.1,-157.0,-45.3,-150.1
27,0.867533333333333,2026:04:27 12:27:35.868Z,32.1024828404446,35.209686279569,49.8,3.9,6.1,-157.0,-45.3,-150.1
28,0.9009,2026:04:27 12:27:35.901Z,32.1024828404446,35.209686279569,49.8,3.9,6.1,-157.0,-45.3,-150.1
29,0.934266666666667,2026:04:27 12:27:35.934Z,32.1024828608878,35.209686200021,49.8,4.1,6.1,-157.0,-45.3,-150.1
30,0.967633333333333,2026:04:27 12:27:35.968Z,32.1024828608878,35.209686200021,49.8,4.1,6.1,-157.0,-45.3,-150.1
31,1.001,2026:04:27 12:27:36.001Z,32.1024828608878,35.209686200021,49.8,4.1,6.1,-157.0,-45.3,-150.1
32,1.03436666666667,2026:04:27 12:27:36.034Z,32.102482814475,35.2096862052299,49.8,4.2,6.0,-157.0,-45.3,-150.1
33,1.06773333333333,2026:04:27 12:27:36.068Z,32.102482814475,35.2096862052299,49.8,4.2,6.0,-157.0,-45.3,-150.1
34,1.1011,2026:04:27 12:27:36.101Z,32.102482814475,35.2096862052299,49.8,4.2,6.0,-157.0,-45.3,-150.1
35,1.13446666666667,2026:04:27 12:27:36.134Z,32.1024828088716,35.2096861664357,49.8,4.3,6.0,-157.0,-45.3,-150.1
36,1.16783333333333,2026:04:27 12:27:36.168Z,32.1024828088716,35.2096861664357,49.8,4.3,6.0,-157.0,-45.3,-150.1
37,1.2012,2026:04:27 12:27:36.201Z,32.1024828088716,35.2096861664357,49.8,4.3,6.0,-157.0,-45.3,-149.4
38,1.23456666666667,2026:04:27 12:27:36.235Z,32.1024828302316,35.2096861609132,49.8,4.2,6.1,-156.7,-45.3,-149.4
39,1.26793333333333,2026:04:27 12:27:36.268Z,32.1024828302316,35.2096861609132,49.8,4.2,6.1,-156.7,-45.3,-149.4
40,1.3013,2026:04:27 12:27:36.301Z,32.1024828302316,35.2096861609132,49.8,4.2,6.1,-156.7,-45.3,-145.9
41,1.33466666666667,2026:04:27 12:27:36.335Z,32.1024828503834,35.2096861516053,49.8,3.7,6.4,-153.4,-45.3,-145.9
42,1.36803333333333,2026:04:27 12:27:36.368Z,32.1024828503834,35.2096861516053,49.8,3.7,6.4,-153.4,-45.3,-145.9
43,1.4014,2026:04:27 12:27:36.401Z,32.1024828503834,35.2096861516053,49.8,3.7,6.4,-153.4,-45.3,-140.5
44,1.43476666666667,2026:04:27 12:27:36.435Z,32.1024829390877,35.2096860501543,49.8,3.6,6.6,-147.6,-45.3,-140.5
45,1.46813333333333,2026:04:27 12:27:36.468Z,32.1024829390877,35.2096860501543,49.8,3.6,6.6,-147.6,-45.3,-140.5
46,1.5015,2026:04:27 12:27:36.501Z,32.1024829390877,35.2096860501543,49.8,3.6,6.6,-147.6,-45.3,-134.6
47,1.53486666666667,2026:04:27 12:27:36.535Z,32.1024829556753,35.2096860428238,49.8,3.6,6.5,-141.6,-45.3,-134.6
48,1.56823333333333,2026:04:27 12:27:36.568Z,32.1024829556753,35.2096860428238,49.8,3.6,6.5,-141.6,-45.3,-134.6
49,1.6016,2026:04:27 12:27:36.602Z,32.1024829556753,35.2096860428238,49.8,3.6,6.5,-141.6,-45.3,-128.6
50,1.63496666666667,2026:04:27 12:27:36.635Z,32.1024830078543,35.2096861516407,49.8,3.4,6.5,-135.8,-45.3,-128.6
51,1.66833333333333,2026:04:27 12:27:36.668Z,32.1024830078543,35.2096861516407,49.8,3.4,6.5,-135.8,-45.3,-128.6
52,1.7017,2026:04:27 12:27:36.702Z,32.1024830078543,35.2096861516407,49.8,3.4,6.5,-135.8,-45.3,-122.6
53,1.73506666666667,2026:04:27 12:27:36.735Z,32.1024830424861,35.209686255365,49.8,2.4,6.9,-130.1,-45.3,-122.6
54,1.76843333333333,2026:04:27 12:27:36.768Z,32.1024830424861,35.209686255365,49.8,2.4,6.9,-130.1,-45.3,-122.6
55,1.8018,2026:04:27 12:27:36.802Z,32.1024830424861,35.209686255365,49.8,2.4,6.9,-130.1,-45.2,-116.6
56,1.83516666666667,2026:04:27 12:27:36.835Z,32.1024830576685,35.2096864546411,49.8,1.3,7.1,-124.4,-45.2,-116.6
57,1.86853333333333,2026:04:27 12:27:36.869Z,32.1024830576685,35.2096864546411,49.8,1.3,7.1,-124.4,-45.2,-116.6
58,1.9019,2026:04:27 12:27:36.902Z,32.1024830576685,35.2096864546411,49.8,1.3,7.1,-124.4,-45.2,-110.6
59,1.93526666666667,2026:04:27 12:27:36.935Z,32.1024830900212,35.2096866008008,49.8,0.2,7.3,-118.6,-45.2,-110.6
60,1.96863333333333,2026:04:27 12:27:36.969Z,32.1024830900212,35.2096866008008,49.8,0.2,7.3,-118.6,-45.2,-110.6
61,2.002,2026:04:27 12:27:37.002Z,32.1024830900212,35.2096866008008,49.8,0.2,7.3,-118.6,-45.2,-104.6
62,2.03536666666667,2026:04:27 12:27:37.035Z,32.1024831109357,35.2096868101888,49.8,-0.8,7.3,-112.8,-45.2,-104.6
63,2.06873333333333,2026:04:27 12:27:37.069Z,32.1024831109357,35.2096868101888,49.8,-0.8,7.3,-112.8,-45.2,-104.6
64,2.1021,2026:04:27 12:27:37.102Z,32.1024831109357,35.2096868101888,49.8,-0.8,7.3,-112.8,-45.2,-98.6
65,2.13546666666667,2026:04:27 12:27:37.135Z,32.1024831696434,35.2096870459479,49.8,-1.8,7.0,-107.1,-45.2,-98.6
66,2.16883333333333,2026:04:27 12:27:37.169Z,32.1024831696434,35.2096870459479,49.8,-1.8,7.0,-107.1,-45.2,-98.6
67,2.2022,2026:04:27 12:27:37.202Z,32.1024831696434,35.2096870459479,49.8,-1.8,7.0,-107.1,-45.2,-92.6
68,2.23556666666667,2026:04:27 12:27:37.236Z,32.1024832090476,35.2096873266256,49.8,-2.7,6.2,-101.2,-45.2,-92.6
69,2.26893333333333,2026:04:27 12:27:37.269Z,32.1024832090476,35.2096873266256,49.8,-2.7,6.2,-101.2,-45.2,-92.6
70,2.3023,2026:04:27 12:27:37.302Z,32.1024832090476,35.2096873266256,49.8,-2.7,6.2,-101.2,-45.3,-86.6
71,2.33566666666667,2026:04:27 12:27:37.336Z,32.1024832445533,35.209687613559,49.8,-3.3,5.8,-95.3,-45.3,-86.6
72,2.36903333333333,2026:04:27 12:27:37.369Z,32.1024832445533,35.209687613559,49.8,-3.3,5.8,-95.3,-45.3,-86.6
73,2.4024,2026:04:27 12:27:37.402Z,32.1024832445533,35.209687613559,49.8,-3.3,5.8,-95.3,-45.2,-80.6
74,2.43576666666667,2026:04:27 12:27:37.436Z,32.1024833351339,35.2096877604597,49.8,-4.0,5.2,-89.3,-45.2,-80.6
75,2.46913333333333,2026:04:27 12:27:37.469Z,32.1024833351339,35.2096877604597,49.8,-4.0,5.2,-89.3,-45.2,-80.6
76,2.5025,2026:04:27 12:27:37.503Z,32.1024833351339,35.2096877604597,49.8,-4.0,5.2,-89.3,-45.2,-74.6
77,2.53586666666667,2026:04:27 12:27:37.536Z,32.1024833698514,35.209687997961,49.8,-4.8,4.7,-83.3,-45.2,-74.6
78,2.56923333333333,2026:04:27 12:27:37.569Z,32.1024833698514,35.209687997961,49.8,-4.8,4.7,-83.3,-45.2,-74.6
79,2.6026,2026:04:27 12:27:37.603Z,32.1024833698514,35.209687997961,49.8,-4.8,4.7,-83.3,-45.3,-68.6
80,2.63596666666667,2026:04:27 12:27:37.636Z,32.1024834619315,35.2096881589486,49.8,-5.4,4.0,-77.2,-45.3,-68.6
81,2.66933333333333,2026:04:27 12:27:37.669Z,32.1024834619315,35.2096881589486,49.8,-5.4,4.0,-77.2,-45.3,-68.6
82,2.7027,2026:04:27 12:27:37.703Z,32.1024834619315,35.2096881589486,49.8,-5.4,4.0,-77.2,-45.3,-62.6
83,2.73606666666667,2026:04:27 12:27:37.736Z,32.1024834989965,35.2096883741929,49.8,-5.6,3.0,-71.1,-45.3,-62.6
84,2.76943333333333,2026:04:27 12:27:37.769Z,32.1024834989965,35.2096883741929,49.8,-5.6,3.0,-71.1,-45.3,-62.6
85,2.8028,2026:04:27 12:27:37.803Z,32.1024834989965,35.2096883741929,49.8,-5.6,3.0,-71.1,-45.3,-56.7
86,2.83616666666667,2026:04:27 12:27:37.836Z,32.1024834657956,35.209688537431,49.8,-5.6,2.1,-65.0,-45.3,-56.7
87,2.86953333333333,2026:04:27 12:27:37.870Z,32.1024834657956,35.209688537431,49.8,-5.6,2.1,-65.0,-45.3,-56.7
88,2.9029,2026:04:27 12:27:37.903Z,32.1024834657956,35.209688537431,49.8,-5.6,2.1,-65.0,-45.3,-52.8
89,2.93626666666667,2026:04:27 12:27:37.936Z,32.1024834859304,35.2096887493982,49.8,-5.6,1.2,-60.5,-45.3,-52.8
90,2.96963333333333,2026:04:27 12:27:37.970Z,32.1024834859304,35.2096887493982,49.8,-5.6,1.2,-60.5,-45.3,-52.8
91,3.003,2026:04:27 12:27:38.003Z,32.1024834859304,35.2096887493982,49.8,-5.6,1.2,-60.5,-45.3,-51.1
92,3.03636666666667,2026:04:27 12:27:38.036Z,32.1024834257746,35.2096889837337,49.8,-5.9,0.8,-59.1,-45.3,-51.1
93,3.06973333333333,2026:04:27 12:27:38.070Z,32.1024834257746,35.2096889837337,49.8,-5.9,0.8,-59.1,-45.3,-51.1
94,3.1031,2026:04:27 12:27:38.103Z,32.1024834257746,35.2096889837337,49.8,-5.9,0.8,-59.1,-45.3,-50.0
95,3.13646666666667,2026:04:27 12:27:38.136Z,32.1024833935933,35.2096892229596,49.8,-6.4,0.5,-58.4,-45.3,-50.0
96,3.16983333333333,2026:04:27 12:27:38.170Z,32.1024833935933,35.2096892229596,49.8,-6.4,0.5,-58.4,-45.3,-50.0
97,3.2032,2026:04:27 12:27:38.203Z,32.1024833935933,35.2096892229596,49.8,-6.4,0.5,-58.4,-45.3,-47.9
98,3.33666666666667,2026:04:27 12:27:38.337Z,32.1024832908546,35.2096896757128,49.8,-7.0,-1.0,-52.2,-45.3,-43.5
99,3.37003333333333,2026:04:27 12:27:38.370Z,32.1024832908546,35.2096896757128,49.8,-7.0,-1.0,-52.2,-45.3,-43.5
100,3.4034,2026:04:27 12:27:38.403Z,32.1024832908546,35.2096896757128,49.8,-7.0,-1.0,-52.2,-45.3,-37.8
101,3.43676666666667,2026:04:27 12:27:38.437Z,32.1024832733674,35.2096897821048,49.8,-6.8,-2.1,-46.0,-45.3,-37.8
102,3.47013333333333,2026:04:27 12:27:38.470Z,32.1024832733674,35.2096897821048,49.8,-6.8,-2.1,-46.0,-45.3,-37.8
103,3.5035,2026:04:27 12:27:38.503Z,32.1024832733674,35.2096897821048,49.8,-6.8,-2.1,-46.0,-45.3,-31.9
104,3.53686666666667,2026:04:27 12:27:38.537Z,32.1024831743387,35.2096899656756,49.8,-6.6,-2.9,-39.9,-45.3,-31.9
105,3.57023333333333,2026:04:27 12:27:38.570Z,32.1024831743387,35.2096899656756,49.8,-6.6,-2.9,-39.9,-45.3,-31.9
106,3.6036,2026:04:27 12:27:38.604Z,32.1024831743387,35.2096899656756,49.8,-6.6,-2.9,-39.9,-45.3,-26.5
107,3.63696666666667,2026:04:27 12:27:38.637Z,32.1024830954105,35.2096900474767,49.8,-6.6,-3.4,-34.2,-45.3,-26.5
108,3.67033333333333,2026:04:27 12:27:38.670Z,32.1024830954105,35.2096900474767,49.8,-6.6,-3.4,-34.2,-45.3,-26.5
109,3.7037,2026:04:27 12:27:38.704Z,32.1024830954105,35.2096900474767,49.8,-6.6,-3.4,-34.2,-45.3,-24.3
110,3.73706666666667,2026:04:27 12:27:38.737Z,32.1024830023108,35.2096901546424,49.8,-7.1,-3.5,-31.8,-45.3,-24.3
111,3.77043333333333,2026:04:27 12:27:38.770Z,32.1024830023108,35.2096901546424,49.8,-7.1,-3.5,-31.8,-45.3,-24.3
112,3.8038,2026:04:27 12:27:38.804Z,32.1024830023108,35.2096901546424,49.8,-7.1,-3.5,-31.8,-45.3,-24.0
113,3.83716666666667,2026:04:27 12:27:38.837Z,32.1024827906646,35.2096902081659,49.8,-7.4,-3.3,-32.0,-45.3,-24.0
114,3.87053333333333,2026:04:27 12:27:38.871Z,32.1024827906646,35.2096902081659,49.8,-7.4,-3.3,-32.0,-45.3,-24.0
115,3.9039,2026:04:27 12:27:38.904Z,32.1024827906646,35.2096902081659,49.8,-7.4,-3.3,-32.0,-45.3,-24.0
116,3.93726666666667,2026:04:27 12:27:38.937Z,32.1024826642355,35.209690280477,49.8,-7.4,-3.4,-32.3,-45.3,-24.0
117,3.97063333333333,2026:04:27 12:27:38.971Z,32.1024826642355,35.209690280477,49.8,-7.4,-3.4,-32.3,-45.3,-24.0
118,4.004,2026:04:27 12:27:39.004Z,32.1024826642355,35.209690280477,49.8,-7.4,-3.4,-32.3,-45.3,-24.0
119,4.03736666666667,2026:04:27 12:27:39.037Z,32.1024825624137,35.2096904394847,49.8,-7.4,-3.6,-32.2,-45.3,-24.0
120,4.07073333333333,2026:04:27 12:27:39.071Z,32.1024825624137,35.2096904394847,49.8,-7.4,-3.6,-32.2,-45.3,-24.0
121,4.1041,2026:04:27 12:27:39.104Z,32.1024825624137,35.2096904394847,49.8,-7.4,-3.6,-32.2,-45.3,-24.0
122,4.13746666666667,2026:04:27 12:27:39.137Z,32.1024824397374,35.2096904951019,49.8,-7.6,-3.7,-32.2,-45.3,-24.0
123,4.17083333333333,2026:04:27 12:27:39.171Z,32.1024824397374,35.2096904951019,49.8,-7.6,-3.7,-32.2,-45.3,-24.0
124,4.2042,2026:04:27 12:27:39.204Z,32.1024824397374,35.2096904951019,49.8,-7.6,-3.7,-32.2,-45.3,-24.0
125,4.23756666666667,2026:04:27 12:27:39.238Z,32.1024823906257,35.2096903368452,49.8,-8.7,-3.3,-32.2,-45.3,-24.0
126,4.27093333333333,2026:04:27 12:27:39.271Z,32.1024823906257,35.2096903368452,49.8,-8.7,-3.3,-32.2,-45.3,-24.0
127,4.3043,2026:04:27 12:27:39.304Z,32.1024823906257,35.2096903368452,49.8,-8.7,-3.3,-32.2,-45.3,-24.0
128,4.33766666666667,2026:04:27 12:27:39.338Z,32.1024822885297,35.2096903433387,49.8,-16.1,-2.8,-32.3,-45.3,-24.0
129,4.37103333333333,2026:04:27 12:27:39.371Z,32.1024822885297,35.2096903433387,49.8,-16.1,-2.8,-32.3,-45.3,-24.0
130,4.4044,2026:04:27 12:27:39.404Z,32.1024822885297,35.2096903433387,49.8,-16.1,-2.8,-32.3,-45.3,-24.0
131,4.43776666666667,2026:04:27 12:27:39.438Z,32.1024823174552,35.2096900728236,49.8,-23.5,-2.3,-32.3,-45.3,-24.0
132,4.47113333333333,2026:04:27 12:27:39.471Z,32.1024823174552,35.2096900728236,49.8,-23.5,-2.3,-32.3,-45.3,-24.0
133,4.5045,2026:04:27 12:27:39.504Z,32.1024823174552,35.2096900728236,49.8,-23.5,-2.3,-32.3,-45.3,-24.0
134,4.53786666666667,2026:04:27 12:27:39.538Z,32.1024824936128,35.2096898583682,49.8,-27.2,-1.8,-32.3,-45.3,-24.0
135,4.57123333333333,2026:04:27 12:27:39.571Z,32.1024824936128,35.2096898583682,49.8,-27.2,-1.8,-32.3,-45.3,-24.0
136,4.6046,2026:04:27 12:27:39.605Z,32.1024824936128,35.2096898583682,49.8,-27.2,-1.8,-32.3,-45.3,-24.0
137,4.63796666666667,2026:04:27 12:27:39.638Z,32.1024831179528,35.2096891934328,49.8,-28.2,-1.5,-32.4,-45.3,-24.0
138,4.67133333333333,2026:04:27 12:27:39.671Z,32.1024831179528,35.2096891934328,49.8,-28.2,-1.5,-32.4,-45.3,-24.0
139,4.7047,2026:04:27 12:27:39.705Z,32.1024831179528,35.2096891934328,49.8,-28.2,-1.5,-32.4,-45.3,-24.0
140,4.73806666666667,2026:04:27 12:27:39.738Z,32.1024838518345,35.2096885825821,49.8,-28.3,-1.3,-32.5,-45.3,-24.0
141,4.77143333333333,2026:04:27 12:27:39.771Z,32.1024838518345,35.2096885825821,49.8,-28.3,-1.3,-32.5,-45.3,-24.0
142,4.8048,2026:04:27 12:27:39.805Z,32.1024838518345,35.2096885825821,49.8,-28.3,-1.3,-32.5,-45.3,-24.0
143,4.83816666666667,2026:04:27 12:27:39.838Z,32.1024852374651,35.2096874821893,49.8,-28.3,-1.3,-32.6,-45.3,-24.0
144,4.87153333333333,2026:04:27 12:27:39.872Z,32.1024852374651,35.2096874821893,49.8,-28.3,-1.3,-32.6,-45.3,-24.0
145,4.9049,2026:04:27 12:27:39.905Z,32.1024852374651,35.2096874821893,49.8,-28.3,-1.3,-32.6,-45.3,-24.0
146,4.93826666666667,2026:04:27 12:27:39.938Z,32.10248655923,35.2096865318451,49.8,-28.4,-1.5,-32.6,-45.3,-24.0
147,4.97163333333333,2026:04:27 12:27:39.972Z,32.10248655923,35.2096865318451,49.8,-28.4,-1.5,-32.6,-45.3,-24.0
148,5.005,2026:04:27 12:27:40.005Z,32.10248655923,35.2096865318451,49.8,-28.4,-1.5,-32.6,-45.3,-24.0
149,5.03836666666667,2026:04:27 12:27:40.038Z,32.1024886411288,35.209685010145,49.8,-28.5,-1.5,-32.6,-45.3,-24.0
150,5.07173333333333,2026:04:27 12:27:40.072Z,32.1024886411288,35.209685010145,49.8,-28.5,-1.5,-32.6,-45.3,-24.0
151,5.1051,2026:04:27 12:27:40.105Z,32.1024886411288,35.209685010145,49.8,-28.5,-1.5,-32.6,-45.3,-24.0
152,5.13846666666667,2026:04:27 12:27:40.138Z,32.1024906863224,35.209683536284,49.8,-28.4,-1.6,-32.6,-45.3,-24.0
153,5.17183333333333,2026:04:27 12:27:40.172Z,32.1024906863224,35.209683536284,49.8,-28.4,-1.6,-32.6,-45.3,-24.0
154,5.2052,2026:04:27 12:27:40.205Z,32.1024906863224,35.209683536284,49.8,-28.4,-1.6,-32.6,-45.3,-24.0
155,5.23856666666667,2026:04:27 12:27:40.239Z,32.1024928385986,35.2096819121745,49.8,-28.3,-1.5,-32.7,-45.3,-24.0
156,5.27193333333333,2026:04:27 12:27:40.272Z,32.1024928385986,35.2096819121745,49.8,-28.3,-1.5,-32.7,-45.3,-24.0
157,5.3053,2026:04:27 12:27:40.305Z,32.1024928385986,35.2096819121745,49.8,-28.3,-1.5,-32.7,-45.3,-24.0
158,5.33866666666667,2026:04:27 12:27:40.339Z,32.1024951827033,35.2096802115967,49.8,-28.0,-1.3,-32.7,-45.3,-24.0
159,5.37203333333333,2026:04:27 12:27:40.372Z,32.1024951827033,35.2096802115967,49.8,-28.0,-1.3,-32.7,-45.3,-24.0
160,5.4054,2026:04:27 12:27:40.405Z,32.1024951827033,35.2096802115967,49.8,-28.0,-1.3,-32.7,-45.3,-24.0
161,5.43876666666667,2026:04:27 12:27:40.439Z,32.1024983138196,35.2096777996453,49.8,-28.0,-1.4,-32.8,-45.3,-24.0
162,5.47213333333333,2026:04:27 12:27:40.472Z,32.1024983138196,35.2096777996453,49.8,-28.0,-1.4,-32.8,-45.3,-24.0
163,5.5055,2026:04:27 12:27:40.506Z,32.1024983138196,35.2096777996453,49.8,-28.0,-1.4,-32.8,-45.3,-24.0
164,5.53886666666667,2026:04:27 12:27:40.539Z,32.1025010900502,35.2096758142581,49.8,-28.0,-1.4,-32.7,-45.3,-24.0
165,5.57223333333333,2026:04:27 12:27:40.572Z,32.1025010900502,35.2096758142581,49.8,-28.0,-1.4,-32.7,-45.3,-24.0
166,5.6056,2026:04:27 12:27:40.606Z,32.1025010900502,35.2096758142581,49.8,-28.0,-1.4,-32.7,-45.3,-24.0
167,5.63896666666667,2026:04:27 12:27:40.639Z,32.1025045453617,35.2096732164577,49.8,-27.6,-1.2,-32.8,-45.3,-24.0
168,5.67233333333333,2026:04:27 12:27:40.672Z,32.1025045453617,35.2096732164577,49.8,-27.6,-1.2,-32.8,-45.3,-24.0
169,5.7057,2026:04:27 12:27:40.706Z,32.1025045453617,35.2096732164577,49.8,-27.6,-1.2,-32.8,-45.3,-24.0
170,5.73906666666667,2026:04:27 12:27:40.739Z,32.1025077738531,35.2096709208383,49.8,-27.4,-1.2,-32.8,-45.3,-24.0
171,5.77243333333333,2026:04:27 12:27:40.772Z,32.1025077738531,35.2096709208383,49.8,-27.4,-1.2,-32.8,-45.3,-24.0
172,5.8058,2026:04:27 12:27:40.806Z,32.1025077738531,35.2096709208383,49.8,-27.4,-1.2,-32.8,-45.3,-24.0
173,5.83916666666667,2026:04:27 12:27:40.839Z,32.102510996347,35.2096683230479,49.8,-27.7,-1.6,-32.8,-45.3,-24.0
174,5.87253333333333,2026:04:27 12:27:40.873Z,32.102510996347,35.2096683230479,49.8,-27.7,-1.6,-32.8,-45.3,-24.0
175,5.9059,2026:04:27 12:27:40.906Z,32.102510996347,35.2096683230479,49.8,-27.7,-1.6,-32.8,-45.3,-24.0
176,5.93926666666667,2026:04:27 12:27:40.939Z,32.1025146814688,35.2096656499297,49.8,-27.9,-1.5,-32.7,-45.3,-24.0
177,5.97263333333333,2026:04:27 12:27:40.973Z,32.1025146814688,35.2096656499297,49.8,-27.9,-1.5,-32.7,-45.3,-24.0
178,6.006,2026:04:27 12:27:41.006Z,32.1025146814688,35.2096656499297,49.8,-27.9,-1.5,-32.7,-45.3,-24.0
179,6.03936666666667,2026:04:27 12:27:41.039Z,32.1025193644174,35.2096624696701,49.8,-27.6,-1.3,-32.7,-45.3,-24.0
180,6.07273333333333,2026:04:27 12:27:41.073Z,32.1025193644174,35.2096624696701,49.8,-27.6,-1.3,-32.7,-45.3,-24.0
181,6.1061,2026:04:27 12:27:41.106Z,32.1025193644174,35.2096624696701,49.8,-27.6,-1.3,-32.7,-45.3,-24.0
182,6.13946666666667,2026:04:27 12:27:41.139Z,32.1025231045542,35.2096597980691,49.8,-27.1,-1.1,-32.7,-45.3,-24.0
183,6.17283333333333,2026:04:27 12:27:41.173Z,32.1025231045542,35.2096597980691,49.8,-27.1,-1.1,-32.7,-45.3,-24.0
184,6.2062,2026:04:27 12:27:41.206Z,32.1025231045542,35.2096597980691,49.8,-27.1,-1.1,-32.7,-45.3,-24.0
185,6.23956666666667,2026:04:27 12:27:41.240Z,32.1025277434719,35.2096563771701,49.8,-26.9,-1.3,-32.7,-45.3,-24.0
186,6.27293333333333,2026:04:27 12:27:41.273Z,32.1025277434719,35.2096563771701,49.8,-26.9,-1.3,-32.7,-45.3,-24.0
187,6.3063,2026:04:27 12:27:41.306Z,32.1025277434719,35.2096563771701,49.8,-26.9,-1.3,-32.7,-45.3,-24.0
188,6.33966666666667,2026:04:27 12:27:41.340Z,32.1025327304552,35.209652833046,49.8,-26.9,-1.4,-32.7,-45.3,-24.0
189,6.37303333333333,2026:04:27 12:27:41.373Z,32.1025327304552,35.209652833046,49.8,-26.9,-1.4,-32.7,-45.3,-24.0
190,6.4064,2026:04:27 12:27:41.406Z,32.1025327304552,35.209652833046,49.8,-26.9,-1.4,-32.7,-45.3,-24.0
191,6.43976666666667,2026:04:27 12:27:41.440Z,32.1025375803766,35.2096493940926,49.8,-26.9,-1.4,-32.7,-45.3,-24.0
192,6.47313333333333,2026:04:27 12:27:41.473Z,32.1025375803766,35.2096493940926,49.8,-26.9,-1.4,-32.7,-45.3,-24.0
193,6.5065,2026:04:27 12:27:41.507Z,32.1025375803766,35.2096493940926,49.8,-26.9,-1.4,-32.7,-45.3,-24.0
194,6.53986666666667,2026:04:27 12:27:41.540Z,32.1025421798045,35.2096461489028,49.8,-26.8,-1.4,-32.7,-45.3,-24.0
195,6.57323333333333,2026:04:27 12:27:41.573Z,32.1025421798045,35.2096461489028,49.8,-26.8,-1.4,-32.7,-45.3,-24.0
196,6.6066,2026:04:27 12:27:41.607Z,32.1025421798045,35.2096461489028,49.8,-26.8,-1.4,-32.7,-45.3,-24.0
197,6.63996666666667,2026:04:27 12:27:41.640Z,32.1025473767076,35.2096426238749,49.8,-26.9,-1.2,-32.7,-45.3,-24.0
198,6.67333333333333,2026:04:27 12:27:41.673Z,32.1025473767076,35.2096426238749,49.8,-26.9,-1.2,-32.7,-45.3,-24.0
199,6.7067,2026:04:27 12:27:41.707Z,32.1025473767076,35.2096426238749,49.8,-26.9,-1.2,-32.7,-45.3,-24.0
200,6.74006666666667,2026:04:27 12:27:41.740Z,32.1025525632219,35.2096390210563,49.8,-27.1,-1.3,-32.7,-45.3,-24.0
201,6.77343333333333,2026:04:27 12:27:41.773Z,32.1025525632219,35.2096390210563,49.8,-27.1,-1.3,-32.7,-45.3,-24.0
202,6.8068,2026:04:27 12:27:41.807Z,32.1025525632219,35.2096390210563,49.8,-27.1,-1.3,-32.7,-45.3,-24.0
203,6.84016666666667,2026:04:27 12:27:41.840Z,32.1025580355641,35.2096352638853,49.8,-27.2,-1.2,-32.7,-45.3,-24.0
204,6.87353333333333,2026:04:27 12:27:41.874Z,32.1025580355641,35.2096352638853,49.8,-27.2,-1.2,-32.7,-45.3,-24.0
205,6.9069,2026:04:27 12:27:41.907Z,32.1025580355641,35.2096352638853,49.8,-27.2,-1.2,-32.7,-45.3,-24.0
206,6.94026666666667,2026:04:27 12:27:41.940Z,32.1025632307064,35.2096317197814,49.8,-26.9,-1.4,-32.7,-45.3,-24.0
207,6.97363333333333,2026:04:27 12:27:41.974Z,32.1025632307064,35.2096317197814,49.8,-26.9,-1.4,-32.7,-45.3,-24.0
208,7.007,2026:04:27 12:27:42.007Z,32.1025632307064,35.2096317197814,49.8,-26.9,-1.4,-32.7,-45.3,-24.0
209,7.04036666666667,2026:04:27 12:27:42.040Z,32.1025692677169,35.209627535328,49.8,-26.7,-1.5,-32.7,-45.3,-24.0
210,7.07373333333333,2026:04:27 12:27:42.074Z,32.1025692677169,35.209627535328,49.8,-26.7,-1.5,-32.7,-45.3,-24.0
211,7.1071,2026:04:27 12:27:42.107Z,32.1025692677169,35.209627535328,49.8,-26.7,-1.5,-32.7,-45.3,-24.0
212,7.14046666666667,2026:04:27 12:27:42.140Z,32.1025750055979,35.2096236173311,49.8,-26.5,-1.5,-32.7,-45.3,-24.0
213,7.17383333333333,2026:04:27 12:27:42.174Z,32.1025750055979,35.2096236173311,49.8,-26.5,-1.5,-32.7,-45.3,-24.0
214,7.2072,2026:04:27 12:27:42.207Z,32.1025750055979,35.2096236173311,49.8,-26.5,-1.5,-32.7,-45.3,-24.0
215,7.24056666666667,2026:04:27 12:27:42.241Z,32.1025808300797,35.2096198136586,49.8,-26.7,-1.7,-32.7,-45.3,-24.0
216,7.27393333333333,2026:04:27 12:27:42.274Z,32.1025808300797,35.2096198136586,49.8,-26.7,-1.7,-32.7,-45.3,-24.0
217,7.3073,2026:04:27 12:27:42.307Z,32.1025808300797,35.2096198136586,49.8,-26.7,-1.7,-32.7,-45.3,-24.0
218,7.34066666666667,2026:04:27 12:27:42.341Z,32.102587145965,35.2096155797857,49.8,-26.8,-1.8,-32.6,-45.3,-24.0
219,7.37403333333333,2026:04:27 12:27:42.374Z,32.102587145965,35.2096155797857,49.8,-26.8,-1.8,-32.6,-45.3,-24.0
220,7.4074,2026:04:27 12:27:42.407Z,32.102587145965,35.2096155797857,49.8,-26.8,-1.8,-32.6,-45.3,-24.0
221,7.44076666666667,2026:04:27 12:27:42.441Z,32.102592575086,35.2096118392581,49.8,-27.1,-1.6,-32.6,-45.3,-24.0
222,7.47413333333333,2026:04:27 12:27:42.474Z,32.102592575086,35.2096118392581,49.8,-27.1,-1.6,-32.6,-45.3,-24.0
223,7.5075,2026:04:27 12:27:42.507Z,32.102592575086,35.2096118392581,49.8,-27.1,-1.6,-32.6,-45.3,-24.0
224,7.54086666666667,2026:04:27 12:27:42.541Z,32.1025993742696,35.2096072685012,49.8,-27.5,-1.5,-32.6,-45.3,-24.0
225,7.57423333333333,2026:04:27 12:27:42.574Z,32.1025993742696,35.2096072685012,49.8,-27.5,-1.5,-32.6,-45.3,-24.0
226,7.6076,2026:04:27 12:27:42.608Z,32.1025993742696,35.2096072685012,49.8,-27.5,-1.5,-32.6,-45.3,-24.0
227,7.64096666666667,2026:04:27 12:27:42.641Z,32.1026059027264,35.2096029355971,49.8,-27.5,-1.5,-32.6,-45.3,-24.0
228,7.67433333333333,2026:04:27 12:27:42.674Z,32.1026059027264,35.2096029355971,49.8,-27.5,-1.5,-32.6,-45.3,-24.0
229,7.7077,2026:04:27 12:27:42.708Z,32.1026059027264,35.2096029355971,49.8,-27.5,-1.5,-32.6,-45.3,-24.0
230,7.74106666666667,2026:04:27 12:27:42.741Z,32.1026123622668,35.2095986280905,49.8,-27.6,-1.3,-32.7,-45.3,-24.0
231,7.77443333333333,2026:04:27 12:27:42.774Z,32.1026123622668,35.2095986280905,49.8,-27.6,-1.3,-32.7,-45.3,-24.0
232,7.8078,2026:04:27 12:27:42.808Z,32.1026123622668,35.2095986280905,49.8,-27.6,-1.3,-32.7,-45.3,-24.0
233,7.84116666666667,2026:04:27 12:27:42.841Z,32.1026191477544,35.2095938647938,49.8,-27.6,-1.2,-32.7,-45.3,-24.0
234,7.87453333333333,2026:04:27 12:27:42.875Z,32.1026191477544,35.2095938647938,49.8,-27.6,-1.2,-32.7,-45.3,-24.0
235,7.9079,2026:04:27 12:27:42.908Z,32.1026191477544,35.2095938647938,49.8,-27.6,-1.2,-32.7,-45.3,-24.0
236,7.94126666666667,2026:04:27 12:27:42.941Z,32.1026250971659,35.2095898536727,49.8,-27.5,-1.2,-32.7,-45.3,-24.0
237,7.97463333333333,2026:04:27 12:27:42.975Z,32.1026250971659,35.2095898536727,49.8,-27.5,-1.2,-32.7,-45.3,-24.0
238,8.008,2026:04:27 12:27:43.008Z,32.1026250971659,35.2095898536727,49.8,-27.5,-1.2,-32.7,-45.3,-24.0
239,8.04136666666667,2026:04:27 12:27:43.041Z,32.1026322990852,35.2095850049994,49.8,-27.3,-1.1,-32.8,-45.3,-24.0
240,8.07473333333333,2026:04:27 12:27:43.075Z,32.1026322990852,35.2095850049994,49.8,-27.3,-1.1,-32.8,-45.3,-24.0
241,8.1081,2026:04:27 12:27:43.108Z,32.1026322990852,35.2095850049994,49.8,-27.3,-1.1,-32.8,-45.3,-24.0
242,8.14146666666667,2026:04:27 12:27:43.141Z,32.1026384635593,35.2095808782998,49.8,-27.2,-1.2,-32.7,-45.3,-24.0
243,8.17483333333333,2026:04:27 12:27:43.175Z,32.1026384635593,35.2095808782998,49.8,-27.2,-1.2,-32.7,-45.3,-24.0
244,8.2082,2026:04:27 12:27:43.208Z,32.1026384635593,35.2095808782998,49.8,-27.2,-1.2,-32.7,-45.3,-24.0
245,8.24156666666667,2026:04:27 12:27:43.242Z,32.1026458389052,35.2095759143009,49.8,-27.1,-1.1,-32.8,-45.3,-24.0
246,8.27493333333333,2026:04:27 12:27:43.275Z,32.1026458389052,35.2095759143009,49.8,-27.1,-1.1,-32.8,-45.3,-24.0
247,8.3083,2026:04:27 12:27:43.308Z,32.1026458389052,35.2095759143009,49.8,-27.1,-1.1,-32.8,-45.3,-24.0
248,8.34166666666667,2026:04:27 12:27:43.342Z,32.1026531897124,35.2095709679316,49.8,-27.2,-0.9,-32.8,-45.3,-24.0
249,8.37503333333333,2026:04:27 12:27:43.375Z,32.1026531897124,35.2095709679316,49.8,-27.2,-0.9,-32.8,-45.3,-24.0
250,8.4084,2026:04:27 12:27:43.408Z,32.1026531897124,35.2095709679316,49.8,-27.2,-0.9,-32.8,-45.3,-24.0
251,8.44176666666667,2026:04:27 12:27:43.442Z,32.1026597091557,35.2095665864879,49.8,-27.4,-0.7,-32.8,-45.3,-24.0
252,8.47513333333333,2026:04:27 12:27:43.475Z,32.1026597091557,35.2095665864879,49.8,-27.4,-0.7,-32.8,-45.3,-24.0
253,8.5085,2026:04:27 12:27:43.509Z,32.1026597091557,35.2095665864879,49.8,-27.4,-0.7,-32.8,-45.3,-24.0
254,8.54186666666667,2026:04:27 12:27:43.542Z,32.1026675822283,35.2095613095056,49.8,-27.2,-0.6,-32.8,-45.3,-24.0
255,8.57523333333333,2026:04:27 12:27:43.575Z,32.1026675822283,35.2095613095056,49.8,-27.2,-0.6,-32.8,-45.3,-24.0
256,8.6086,2026:04:27 12:27:43.609Z,32.1026675822283,35.2095613095056,49.8,-27.2,-0.6,-32.8,-45.3,-24.0
257,8.64196666666667,2026:04:27 12:27:43.642Z,32.1026748845793,35.2095565064589,49.8,-27.0,-0.8,-32.8,-45.3,-24.0
258,8.67533333333333,2026:04:27 12:27:43.675Z,32.1026748845793,35.2095565064589,49.8,-27.0,-0.8,-32.8,-45.3,-24.0
259,8.7087,2026:04:27 12:27:43.709Z,32.1026748845793,35.2095565064589,49.8,-27.0,-0.8,-32.8,-45.3,-24.0
260,8.74206666666667,2026:04:27 12:27:43.742Z,32.1026822081789,35.2095516255406,49.8,-27.2,-0.9,-32.8,-45.3,-24.0
261,8.77543333333333,2026:04:27 12:27:43.775Z,32.1026822081789,35.2095516255406,49.8,-27.2,-0.9,-32.8,-45.3,-24.0
262,8.8088,2026:04:27 12:27:43.809Z,32.1026822081789,35.2095516255406,49.8,-27.2,-0.9,-32.8,-45.3,-24.0
263,8.84216666666667,2026:04:27 12:27:43.842Z,32.1026897059911,35.2095468143618,49.8,-26.8,-0.9,-32.8,-45.3,-24.0
264,8.87553333333333,2026:04:27 12:27:43.876Z,32.1026897059911,35.2095468143618,49.8,-26.8,-0.9,-32.8,-45.3,-24.0
265,8.9089,2026:04:27 12:27:43.909Z,32.1026897059911,35.2095468143618,49.8,-26.8,-0.9,-32.8,-45.3,-24.0
266,8.94226666666667,2026:04:27 12:27:43.942Z,32.1026968203092,35.2095421228073,49.8,-26.4,-0.7,-32.8,-45.3,-24.0
267,8.97563333333333,2026:04:27 12:27:43.976Z,32.1026968203092,35.2095421228073,49.8,-26.4,-0.7,-32.8,-45.3,-24.0
268,9.009,2026:04:27 12:27:44.009Z,32.1026968203092,35.2095421228073,49.8,-26.4,-0.7,-32.8,-45.3,-23.9
269,9.04236666666667,2026:04:27 12:27:44.042Z,32.1027046093899,35.2095371337446,49.8,-26.5,-0.6,-32.8,-45.3,-23.9
270,9.07573333333333,2026:04:27 12:27:44.076Z,32.1027046093899,35.2095371337446,49.8,-26.5,-0.6,-32.8,-45.3,-23.9
271,9.1091,2026:04:27 12:27:44.109Z,32.1027046093899,35.2095371337446,49.8,-26.5,-0.6,-32.8,-45.3,-23.9
272,9.14246666666667,2026:04:27 12:27:44.142Z,32.1027118421175,35.2095323845981,49.8,-26.9,-0.5,-32.9,-45.3,-23.9
273,9.17583333333333,2026:04:27 12:27:44.176Z,32.1027118421175,35.2095323845981,49.8,-26.9,-0.5,-32.9,-45.3,-23.9
274,9.2092,2026:04:27 12:27:44.209Z,32.1027118421175,35.2095323845981,49.8,-26.9,-0.5,-32.9,-45.3,-23.9
275,9.24256666666667,2026:04:27 12:27:44.243Z,32.1027199998269,35.2095271667048,49.8,-26.8,-0.2,-32.8,-45.3,-23.9
276,9.27593333333333,2026:04:27 12:27:44.276Z,32.1027199998269,35.2095271667048,49.8,-26.8,-0.2,-32.8,-45.3,-23.9
277,9.3093,2026:04:27 12:27:44.309Z,32.1027199998269,35.2095271667048,49.8,-26.8,-0.2,-32.8,-45.3,-23.8
278,9.34266666666667,2026:04:27 12:27:44.343Z,32.1027281605522,35.2095218581855,49.8,-26.7,-0.4,-32.7,-45.3,-23.8
279,9.37603333333333,2026:04:27 12:27:44.376Z,32.1027281605522,35.2095218581855,49.8,-26.7,-0.4,-32.7,-45.3,-23.8
280,9.4094,2026:04:27 12:27:44.409Z,32.1027281605522,35.2095218581855,49.8,-26.7,-0.4,-32.7,-45.3,-23.7
281,9.44276666666667,2026:04:27 12:27:44.443Z,32.1027354090192,35.2095173552261,49.8,-26.5,-0.5,-32.7,-45.3,-23.7
282,9.47613333333333,2026:04:27 12:27:44.476Z,32.1027354090192,35.2095173552261,49.8,-26.5,-0.5,-32.7,-45.3,-23.7
283,9.5095,2026:04:27 12:27:44.510Z,32.1027354090192,35.2095173552261,49.8,-26.5,-0.5,-32.7,-45.3,-23.7
284,9.54286666666667,2026:04:27 12:27:44.543Z,32.102744115182,35.2095117688814,49.8,-26.3,-0.4,-32.6,-45.3,-23.7
285,9.57623333333333,2026:04:27 12:27:44.576Z,32.102744115182,35.2095117688814,49.8,-26.3,-0.4,-32.6,-45.3,-23.7
286,9.6096,2026:04:27 12:27:44.610Z,32.102744115182,35.2095117688814,49.8,-26.3,-0.4,-32.6,-45.3,-23.6
287,9.64296666666667,2026:04:27 12:27:44.643Z,32.1027514198292,35.2095071758423,49.8,-26.1,-0.4,-32.5,-45.3,-23.6
288,9.67633333333333,2026:04:27 12:27:44.676Z,32.1027514198292,35.2095071758423,49.8,-26.1,-0.4,-32.5,-45.3,-23.6
289,9.7097,2026:04:27 12:27:44.710Z,32.1027514198292,35.2095071758423,49.8,-26.1,-0.4,-32.5,-45.3,-23.5
290,9.74306666666667,2026:04:27 12:27:44.743Z,32.102760271442,35.2095015204762,49.8,-25.9,-0.4,-32.4,-45.3,-23.5
291,9.77643333333333,2026:04:27 12:27:44.776Z,32.102760271442,35.2095015204762,49.8,-25.9,-0.4,-32.4,-45.3,-23.5
292,9.8098,2026:04:27 12:27:44.810Z,32.102760271442,35.2095015204762,49.8,-25.9,-0.4,-32.4,-45.3,-23.4
293,9.84316666666667,2026:04:27 12:27:44.843Z,32.1027689050169,35.2094962788542,49.8,-25.9,-1.0,-32.3,-45.3,-23.4
294,9.87653333333333,2026:04:27 12:27:44.877Z,32.1027689050169,35.2094962788542,49.8,-25.9,-1.0,-32.3,-45.3,-23.4
295,9.9099,2026:04:27 12:27:44.910Z,32.1027689050169,35.2094962788542,49.8,-25.9,-1.0,-32.3,-45.3,-23.4
296,9.94326666666667,2026:04:27 12:27:44.943Z,32.1027762641908,35.2094916450536,49.8,-26.1,-1.3,-32.2,-45.3,-23.4
297,9.97663333333333,2026:04:27 12:27:44.977Z,32.1027762641908,35.2094916450536,49.8,-26.1,-1.3,-32.2,-45.3,-23.4
298,10.01,2026:04:27 12:27:45.010Z,32.1027762641908,35.2094916450536,49.8,-26.1,-1.3,-32.2,-45.3,-23.4
299,10.0433666666667,2026:04:27 12:27:45.043Z,32.1027838667808,35.2094869554815,49.8,-26.3,-1.2,-32.2,-45.3,-23.4
300,10.0767333333333,2026:04:27 12:27:45.077Z,32.1027838667808,35.2094869554815,49.8,-26.3,-1.2,-32.2,-45.3,-23.4
301,10.1101,2026:04:27 12:27:45.110Z,32.1027838667808,35.2094869554815,49.8,-26.3,-1.2,-32.2,-45.3,-23.4
302,10.1434666666667,2026:04:27 12:27:45.143Z,32.102792541105,35.209481491401,49.8,-26.4,-1.1,-32.2,-45.3,-23.4
303,10.1768333333333,2026:04:27 12:27:45.177Z,32.102792541105,35.209481491401,49.8,-26.4,-1.1,-32.2,-45.3,-23.4
304,10.2102,2026:04:27 12:27:45.210Z,32.102792541105,35.209481491401,49.8,-26.4,-1.1,-32.2,-45.3,-23.4
305,10.2435666666667,2026:04:27 12:27:45.244Z,32.102801410128,35.2094760544274,49.8,-26.3,-1.1,-32.3,-45.3,-23.4
306,10.2769333333333,2026:04:27 12:27:45.277Z,32.102801410128,35.2094760544274,49.8,-26.3,-1.1,-32.3,-45.3,-23.4
307,10.3103,2026:04:27 12:27:45.310Z,32.102801410128,35.2094760544274,49.8,-26.3,-1.1,-32.3,-45.3,-23.4
308,10.3436666666667,2026:04:27 12:27:45.344Z,32.1028101739191,35.2094705294778,49.8,-26.1,-0.9,-32.3,-45.3,-23.4
309,10.3770333333333,2026:04:27 12:27:45.377Z,32.1028101739191,35.2094705294778,49.8,-26.1,-0.9,-32.3,-45.3,-23.4
310,10.4104,2026:04:27 12:27:45.410Z,32.1028101739191,35.2094705294778,49.8,-26.1,-0.9,-32.3,-45.3,-23.4
311,10.4437666666667,2026:04:27 12:27:45.444Z,32.1028178465609,35.2094658461566,49.8,-26.0,-0.9,-32.3,-45.3,-23.4
312,10.4771333333333,2026:04:27 12:27:45.477Z,32.1028178465609,35.2094658461566,49.8,-26.0,-0.9,-32.3,-45.3,-23.4
313,10.5105,2026:04:27 12:27:45.510Z,32.1028178465609,35.2094658461566,49.8,-26.0,-0.9,-32.3,-45.3,-23.4
314,10.5438666666667,2026:04:27 12:27:45.544Z,32.1028271481983,35.2094600419454,49.8,-26.0,-0.9,-32.4,-45.3,-23.4
315,10.5772333333333,2026:04:27 12:27:45.577Z,32.1028271481983,35.2094600419454,49.8,-26.0,-0.9,-32.4,-45.3,-23.4
316,10.6106,2026:04:27 12:27:45.611Z,32.1028271481983,35.2094600419454,49.8,-26.0,-0.9,-32.4,-45.3,-23.4
317,10.6439666666667,2026:04:27 12:27:45.644Z,32.1028361192487,35.2094545499691,49.8,-26.1,-0.4,-32.4,-45.3,-23.4
318,10.6773333333333,2026:04:27 12:27:45.677Z,32.1028361192487,35.2094545499691,49.8,-26.1,-0.4,-32.4,-45.3,-23.4
319,10.7107,2026:04:27 12:27:45.711Z,32.1028361192487,35.2094545499691,49.8,-26.1,-0.4,-32.4,-45.3,-23.3
320,10.7440666666667,2026:04:27 12:27:45.744Z,32.1028442015599,35.2094495357617,49.8,-25.5,3.2,-33.1,-45.3,-23.3
321,10.7774333333333,2026:04:27 12:27:45.777Z,32.1028442015599,35.2094495357617,49.8,-25.5,3.2,-33.1,-45.3,-23.3
322,10.8108,2026:04:27 12:27:45.811Z,32.1028442015599,35.2094495357617,49.8,-25.5,3.2,-33.1,-45.3,-22.8
323,10.8441666666667,2026:04:27 12:27:45.844Z,32.1028518896413,35.209444851874,49.8,-22.2,10.1,-33.9,-45.3,-22.8
324,10.8775333333333,2026:04:27 12:27:45.878Z,32.1028518896413,35.209444851874,49.8,-22.2,10.1,-33.9,-45.3,-22.8
325,10.9109,2026:04:27 12:27:45.911Z,32.1028518896413,35.209444851874,49.8,-22.2,10.1,-33.9,-45.3,-21.7
326,10.9442666666667,2026:04:27 12:27:45.944Z,32.1028609263396,35.2094395265646,49.8,-18.1,14.4,-32.9,-45.3,-21.7
327,10.9776333333333,2026:04:27 12:27:45.978Z,32.1028609263396,35.2094395265646,49.8,-18.1,14.4,-32.9,-45.3,-21.7
328,11.011,2026:04:27 12:27:46.011Z,32.1028609263396,35.2094395265646,49.8,-18.1,14.4,-32.9,-45.3,-20.1
329,11.0443666666667,2026:04:27 12:27:46.044Z,32.1028699288859,35.2094350706782,49.9,-15.5,14.3,-31.1,-45.3,-20.1
330,11.0777333333333,2026:04:27 12:27:46.078Z,32.1028699288859,35.2094350706782,49.9,-15.5,14.3,-31.1,-45.3,-20.1
331,11.1111,2026:04:27 12:27:46.111Z,32.1028699288859,35.2094350706782,49.9,-15.5,14.3,-31.1,-45.2,-18.7
332,11.1444666666667,2026:04:27 12:27:46.144Z,32.1028783116247,35.2094308916663,49.9,-17.8,6.7,-28.9,-45.2,-18.7
333,11.1778333333333,2026:04:27 12:27:46.178Z,32.1028783116247,35.2094308916663,49.9,-17.8,6.7,-28.9,-45.2,-18.7
334,11.2112,2026:04:27 12:27:46.211Z,32.1028783116247,35.2094308916663,49.9,-17.8,6.7,-28.9,-45.3,-18.0
335,11.2445666666667,2026:04:27 12:27:46.245Z,32.1028875157071,35.2094267650274,49.9,-21.2,3.2,-27.8,-45.3,-18.0
336,11.2779333333333,2026:04:27 12:27:46.278Z,32.1028875157071,35.2094267650274,49.9,-21.2,3.2,-27.8,-45.3,-18.0
337,11.3113,2026:04:27 12:27:46.311Z,32.1028875157071,35.2094267650274,49.9,-21.2,3.2,-27.8,-45.3,-17.5
338,11.3446666666667,2026:04:27 12:27:46.345Z,32.1028971430132,35.2094223770498,49.9,-23.3,-0.5,-26.6,-45.3,-17.5
339,11.3780333333333,2026:04:27 12:27:46.378Z,32.1028971430132,35.2094223770498,49.9,-23.3,-0.5,-26.6,-45.3,-17.5
340,11.4114,2026:04:27 12:27:46.411Z,32.1028971430132,35.2094223770498,49.9,-23.3,-0.5,-26.6,-45.3,-17.4
341,11.4447666666667,2026:04:27 12:27:46.445Z,32.1029057815576,35.2094184449129,49.9,-24.2,-2.4,-25.9,-45.3,-17.4
342,11.4781333333333,2026:04:27 12:27:46.478Z,32.1029057815576,35.2094184449129,49.9,-24.2,-2.4,-25.9,-45.3,-17.4
343,11.5115,2026:04:27 12:27:46.511Z,32.1029057815576,35.2094184449129,49.9,-24.2,-2.4,-25.9,-45.3,-17.4
344,11.5448666666667,2026:04:27 12:27:46.545Z,32.1029127705605,35.2094153227055,49.9,-24.6,-2.9,-25.8,-45.3,-17.4
345,11.5782333333333,2026:04:27 12:27:46.578Z,32.1029127705605,35.2094153227055,49.9,-24.6,-2.9,-25.8,-45.3,-17.4
346,11.6116,2026:04:27 12:27:46.612Z,32.1029127705605,35.2094153227055,49.9,-24.6,-2.9,-25.8,-45.3,-17.4
347,11.6449666666667,2026:04:27 12:27:46.645Z,32.102922136252,35.2094112129174,49.8,-24.8,-3.0,-25.7,-45.3,-17.4
348,11.6783333333333,2026:04:27 12:27:46.678Z,32.102922136252,35.2094112129174,49.8,-24.8,-3.0,-25.7,-45.3,-17.4
349,11.7117,2026:04:27 12:27:46.712Z,32.102922136252,35.2094112129174,49.8,-24.8,-3.0,-25.7,-45.3,-17.4
350,11.7450666666667,2026:04:27 12:27:46.745Z,32.1029318384937,35.2094068914123,49.8,-25.1,-3.0,-25.7,-45.3,-17.4
351,11.7784333333333,2026:04:27 12:27:46.778Z,32.1029318384937,35.2094068914123,49.8,-25.1,-3.0,-25.7,-45.3,-17.4
352,11.8118,2026:04:27 12:27:46.812Z,32.1029318384937,35.2094068914123,49.8,-25.1,-3.0,-25.7,-45.3,-17.4
353,11.8451666666667,2026:04:27 12:27:46.845Z,32.102940019508,35.209403071769,49.8,-25.5,-3.0,-25.6,-45.3,-17.4
354,11.8785333333333,2026:04:27 12:27:46.879Z,32.102940019508,35.209403071769,49.8,-25.5,-3.0,-25.6,-45.3,-17.4
355,11.9119,2026:04:27 12:27:46.912Z,32.102940019508,35.209403071769,49.8,-25.5,-3.0,-25.6,-45.3,-17.4
356,11.9452666666667,2026:04:27 12:27:46.945Z,32.1029493933563,35.2093988192853,49.8,-25.7,-2.9,-25.6,-45.3,-17.4
357,11.9786333333333,2026:04:27 12:27:46.979Z,32.1029493933563,35.2093988192853,49.8,-25.7,-2.9,-25.6,-45.3,-17.4
358,12.012,2026:04:27 12:27:47.012Z,32.1029493933563,35.2093988192853,49.8,-25.7,-2.9,-25.6,-45.3,-17.4
359,12.0453666666667,2026:04:27 12:27:47.045Z,32.1029588227936,35.2093944321169,49.8,-25.9,-3.1,-25.5,-45.3,-17.4
360,12.0787333333333,2026:04:27 12:27:47.079Z,32.1029588227936,35.2093944321169,49.8,-25.9,-3.1,-25.5,-45.3,-17.4
361,12.1121,2026:04:27 12:27:47.112Z,32.1029588227936,35.2093944321169,49.8,-25.9,-3.1,-25.5,-45.3,-17.3
362,12.1454666666667,2026:04:27 12:27:47.145Z,32.1029682444169,35.2093901511306,49.8,-25.9,-2.1,-25.8,-45.3,-17.3
363,12.1788333333333,2026:04:27 12:27:47.179Z,32.1029682444169,35.2093901511306,49.8,-25.9,-2.1,-25.8,-45.3,-17.3
364,12.2122,2026:04:27 12:27:47.212Z,32.1029682444169,35.2093901511306,49.8,-25.9,-2.1,-25.8,-45.3,-17.2
365,12.2455666666667,2026:04:27 12:27:47.246Z,32.1029764274875,35.2093865504866,49.8,-25.4,-0.9,-26.0,-45.3,-17.2
366,12.2789333333333,2026:04:27 12:27:47.279Z,32.1029764274875,35.2093865504866,49.8,-25.4,-0.9,-26.0,-45.3,-17.2
367,12.3123,2026:04:27 12:27:47.312Z,32.1029764274875,35.2093865504866,49.8,-25.4,-0.9,-26.0,-45.3,-16.9
368,12.3456666666667,2026:04:27 12:27:47.346Z,32.1029859319118,35.2093823390477,49.8,-24.9,0.8,-26.0,-45.3,-16.9
369,12.3790333333333,2026:04:27 12:27:47.379Z,32.1029859319118,35.2093823390477,49.8,-24.9,0.8,-26.0,-45.3,-16.9
370,12.4124,2026:04:27 12:27:47.412Z,32.1029859319118,35.2093823390477,49.8,-24.9,0.8,-26.0,-45.3,-16.4
371,12.4457666666667,2026:04:27 12:27:47.446Z,32.1029942097785,35.2093788962305,49.8,-23.7,2.7,-25.9,-45.3,-16.4
372,12.4791333333333,2026:04:27 12:27:47.479Z,32.1029942097785,35.2093788962305,49.8,-23.7,2.7,-25.9,-45.3,-16.4
373,12.5125,2026:04:27 12:27:47.513Z,32.1029942097785,35.2093788962305,49.8,-23.7,2.7,-25.9,-45.3,-15.7
374,12.5458666666667,2026:04:27 12:27:47.546Z,32.1030042775987,35.2093746749602,49.8,-22.7,3.6,-25.4,-45.3,-15.7
375,12.5792333333333,2026:04:27 12:27:47.579Z,32.1030042775987,35.2093746749602,49.8,-22.7,3.6,-25.4,-45.3,-15.7
376,12.6126,2026:04:27 12:27:47.613Z,32.1030042775987,35.2093746749602,49.8,-22.7,3.6,-25.4,-45.3,-15.0
377,12.6459666666667,2026:04:27 12:27:47.646Z,32.1030140641494,35.2093709003062,49.8,-22.2,3.7,-24.7,-45.3,-15.0
378,12.6793333333333,2026:04:27 12:27:47.679Z,32.1030140641494,35.2093709003062,49.8,-22.2,3.7,-24.7,-45.3,-15.0
379,12.7127,2026:04:27 12:27:47.713Z,32.1030140641494,35.2093709003062,49.8,-22.2,3.7,-24.7,-45.3,-14.3
380,12.7460666666667,2026:04:27 12:27:47.746Z,32.1030228480752,35.2093674985945,49.8,-22.2,3.6,-24.0,-45.3,-14.3
381,12.7794333333333,2026:04:27 12:27:47.779Z,32.1030228480752,35.2093674985945,49.8,-22.2,3.6,-24.0,-45.3,-14.3
382,12.8128,2026:04:27 12:27:47.813Z,32.1030228480752,35.2093674985945,49.8,-22.2,3.6,-24.0,-45.3,-13.6
383,12.8461666666667,2026:04:27 12:27:47.846Z,32.1030323231284,35.2093644078431,49.9,-22.6,2.8,-23.2,-45.3,-13.6
384,12.8795333333333,2026:04:27 12:27:47.880Z,32.1030323231284,35.2093644078431,49.9,-22.6,2.8,-23.2,-45.3,-13.6
385,12.9129,2026:04:27 12:27:47.913Z,32.1030323231284,35.2093644078431,49.9,-22.6,2.8,-23.2,-45.3,-12.9
386,12.9462666666667,2026:04:27 12:27:47.946Z,32.1030411658306,35.209361304388,49.9,-22.5,2.9,-22.5,-45.3,-12.9
387,12.9796333333333,2026:04:27 12:27:47.980Z,32.1030411658306,35.209361304388,49.9,-22.5,2.9,-22.5,-45.3,-12.9
388,13.013,2026:04:27 12:27:48.013Z,32.1030411658306,35.209361304388,49.9,-22.5,2.9,-22.5,-45.3,-12.3
389,13.0463666666667,2026:04:27 12:27:48.046Z,32.1030508380158,35.2093582523955,49.9,-21.5,4.0,-22.1,-45.3,-12.3
390,13.0797333333333,2026:04:27 12:27:48.080Z,32.1030508380158,35.2093582523955,49.9,-21.5,4.0,-22.1,-45.3,-12.3
391,13.1131,2026:04:27 12:27:48.113Z,32.1030508380158,35.2093582523955,49.9,-21.5,4.0,-22.1,-45.3,-11.5
392,13.1464666666667,2026:04:27 12:27:48.146Z,32.1030606334429,35.2093551082395,49.9,-19.5,6.7,-21.6,-45.3,-11.5
393,13.1798333333333,2026:04:27 12:27:48.180Z,32.1030606334429,35.2093551082395,49.9,-19.5,6.7,-21.6,-45.3,-11.5
394,13.2132,2026:04:27 12:27:48.213Z,32.1030606334429,35.2093551082395,49.9,-19.5,6.7,-21.6,-45.3,-10.4
395,13.2465666666667,2026:04:27 12:27:48.247Z,32.1030691187233,35.2093527274054,49.9,-18.0,7.8,-20.6,-45.3,-10.4
396,13.2799333333333,2026:04:27 12:27:48.280Z,32.1030691187233,35.2093527274054,49.9,-18.0,7.8,-20.6,-45.3,-10.4
397,13.3133,2026:04:27 12:27:48.313Z,32.1030691187233,35.2093527274054,49.9,-18.0,7.8,-20.6,-45.3,-9.2
398,13.3466666666667,2026:04:27 12:27:48.347Z,32.1030789283389,35.2093500628795,49.9,-17.2,7.5,-19.4,-45.3,-9.2
399,13.3800333333333,2026:04:27 12:27:48.380Z,32.1030789283389,35.2093500628795,49.9,-17.2,7.5,-19.4,-45.3,-9.2
400,13.4134,2026:04:27 12:27:48.413Z,32.1030789283389,35.2093500628795,49.9,-17.2,7.5,-19.4,-45.3,-8.1
401,13.4467666666667,2026:04:27 12:27:48.447Z,32.1030876312459,35.2093484199595,49.9,-16.6,6.8,-18.1,-45.3,-8.1
402,13.4801333333333,2026:04:27 12:27:48.480Z,32.1030876312459,35.2093484199595,49.9,-16.6,6.8,-18.1,-45.3,-8.1
403,13.5135,2026:04:27 12:27:48.513Z,32.1030876312459,35.2093484199595,49.9,-16.6,6.8,-18.1,-45.3,-6.9
404,13.5468666666667,2026:04:27 12:27:48.547Z,32.1030974410329,35.209346304611,49.9,-15.9,6.2,-16.8,-45.3,-6.9
405,13.5802333333333,2026:04:27 12:27:48.580Z,32.1030974410329,35.209346304611,49.9,-15.9,6.2,-16.8,-45.3,-6.9
406,13.6136,2026:04:27 12:27:48.614Z,32.1030974410329,35.209346304611,49.9,-15.9,6.2,-16.8,-45.3,-5.7
407,13.6469666666667,2026:04:27 12:27:48.647Z,32.1031071892676,35.2093446879483,49.9,-15.3,6.2,-15.6,-45.3,-5.7
408,13.6803333333333,2026:04:27 12:27:48.680Z,32.1031071892676,35.2093446879483,49.9,-15.3,6.2,-15.6,-45.3,-5.7
409,13.7137,2026:04:27 12:27:48.714Z,32.1031071892676,35.2093446879483,49.9,-15.3,6.2,-15.6,-45.3,-4.6
410,13.7470666666667,2026:04:27 12:27:48.747Z,32.1031164574555,35.2093431520398,49.9,-14.6,6.3,-14.2,-45.3,-4.6
411,13.7804333333333,2026:04:27 12:27:48.780Z,32.1031164574555,35.2093431520398,49.9,-14.6,6.3,-14.2,-45.3,-4.6
412,13.8138,2026:04:27 12:27:48.814Z,32.1031164574555,35.2093431520398,49.9,-14.6,6.3,-14.2,-45.3,-3.4
413,13.8471666666667,2026:04:27 12:27:48.847Z,32.1031256304361,35.2093421029629,49.9,-14.1,6.1,-13.0,-45.3,-3.4
414,13.8805333333333,2026:04:27 12:27:48.881Z,32.1031256304361,35.2093421029629,49.9,-14.1,6.1,-13.0,-45.3,-3.4
415,13.9139,2026:04:27 12:27:48.914Z,32.1031256304361,35.2093421029629,49.9,-14.1,6.1,-13.0,-45.3,-2.3
416,13.9472666666667,2026:04:27 12:27:48.947Z,32.1031343305671,35.2093411091922,49.9,-14.0,5.8,-11.7,-45.3,-2.3
417,13.9806333333333,2026:04:27 12:27:48.981Z,32.1031343305671,35.2093411091922,49.9,-14.0,5.8,-11.7,-45.3,-2.3
418,14.014,2026:04:27 12:27:49.014Z,32.1031343305671,35.2093411091922,49.9,-14.0,5.8,-11.7,-45.3,-1.1
419,14.0473666666667,2026:04:27 12:27:49.047Z,32.1031440341797,35.2093404782086,49.9,-13.4,5.3,-10.5,-45.3,-1.1
420,14.0807333333333,2026:04:27 12:27:49.081Z,32.1031440341797,35.2093404782086,49.9,-13.4,5.3,-10.5,-45.3,-1.1
421,14.2142,2026:04:27 12:27:49.214Z,32.1031522012453,35.2093399397121,49.9,-13.0,4.7,-9.2,-45.3,1.2
422,14.2475666666667,2026:04:27 12:27:49.248Z,32.1031617619783,35.209339542576,49.9,-12.9,4.1,-8.0,-45.3,1.2
423,14.2809333333333,2026:04:27 12:27:49.281Z,32.1031617619783,35.209339542576,49.9,-12.9,4.1,-8.0,-45.3,1.2
424,14.3143,2026:04:27 12:27:49.314Z,32.1031617619783,35.209339542576,49.9,-12.9,4.1,-8.0,-45.3,2.3
425,14.3476666666667,2026:04:27 12:27:49.348Z,32.1031716361623,35.2093392758766,49.9,-12.8,3.8,-6.8,-45.3,2.3
426,14.3810333333333,2026:04:27 12:27:49.381Z,32.1031716361623,35.2093392758766,49.9,-12.8,3.8,-6.8,-45.3,2.3
427,14.4144,2026:04:27 12:27:49.414Z,32.1031716361623,35.2093392758766,49.9,-12.8,3.8,-6.8,-45.3,3.5
428,14.4477666666667,2026:04:27 12:27:49.448Z,32.1031804906882,35.2093396837746,49.9,-12.7,3.7,-5.7,-45.3,3.5
429,14.4811333333333,2026:04:27 12:27:49.481Z,32.1031804906882,35.2093396837746,49.9,-12.7,3.7,-5.7,-45.3,3.5
430,14.5145,2026:04:27 12:27:49.514Z,32.1031804906882,35.2093396837746,49.9,-12.7,3.7,-5.7,-45.3,4.6
431,14.5478666666667,2026:04:27 12:27:49.548Z,32.103188863591,35.2093398890991,49.9,-12.7,3.2,-4.5,-45.3,4.6
432,14.5812333333333,2026:04:27 12:27:49.581Z,32.103188863591,35.2093398890991,49.9,-12.7,3.2,-4.5,-45.3,4.6
433,14.6146,2026:04:27 12:27:49.615Z,32.103188863591,35.2093398890991,49.9,-12.7,3.2,-4.5,-45.3,5.7
434,14.6479666666667,2026:04:27 12:27:49.648Z,32.1031980875339,35.2093406039926,49.9,-12.4,3.1,-3.3,-45.3,5.7
435,14.6813333333333,2026:04:27 12:27:49.681Z,32.1031980875339,35.2093406039926,49.9,-12.4,3.1,-3.3,-45.3,5.7
436,14.7147,2026:04:27 12:27:49.715Z,32.1031980875339,35.2093406039926,49.9,-12.4,3.1,-3.3,-45.3,6.9
437,14.7480666666667,2026:04:27 12:27:49.748Z,32.1032069139226,35.2093412077479,49.9,-11.6,3.5,-2.1,-45.3,6.9
438,14.7814333333333,2026:04:27 12:27:49.781Z,32.1032069139226,35.2093412077479,49.9,-11.6,3.5,-2.1,-45.3,6.9
439,14.8148,2026:04:27 12:27:49.815Z,32.1032069139226,35.2093412077479,49.9,-11.6,3.5,-2.1,-45.3,8.0
440,14.8481666666667,2026:04:27 12:27:49.848Z,32.1032158674601,35.2093425307258,49.9,-11.2,3.4,-1.0,-45.3,8.0
441,14.8815333333333,2026:04:27 12:27:49.882Z,32.1032158674601,35.2093425307258,49.9,-11.2,3.4,-1.0,-45.3,8.0
442,14.9149,2026:04:27 12:27:49.915Z,32.1032158674601,35.2093425307258,49.9,-11.2,3.4,-1.0,-45.3,9.1
443,14.9482666666667,2026:04:27 12:27:49.948Z,32.1032236207266,35.2093435475576,49.9,-11.1,3.0,0.1,-45.3,9.1
444,14.9816333333333,2026:04:27 12:27:49.982Z,32.1032236207266,35.2093435475576,49.9,-11.1,3.0,0.1,-45.3,9.1
445,15.015,2026:04:27 12:27:50.015Z,32.1032236207266,35.2093435475576,49.9,-11.1,3.0,0.1,-45.3,10.3
446,15.0483666666667,2026:04:27 12:27:50.048Z,32.1032324850201,35.2093451739303,49.9,-11.1,2.7,1.2,-45.3,10.3
447,15.0817333333333,2026:04:27 12:27:50.082Z,32.1032324850201,35.2093451739303,49.9,-11.1,2.7,1.2,-45.3,10.3
448,15.1151,2026:04:27 12:27:50.115Z,32.1032324850201,35.2093451739303,49.9,-11.1,2.7,1.2,-45.3,11.4
449,15.1484666666667,2026:04:27 12:27:50.148Z,32.1032413744691,35.2093467909571,49.8,-10.7,2.5,2.4,-45.3,11.4
450,15.1818333333333,2026:04:27 12:27:50.182Z,32.1032413744691,35.2093467909571,49.8,-10.7,2.5,2.4,-45.3,11.4
451,15.2152,2026:04:27 12:27:50.215Z,32.1032413744691,35.2093467909571,49.8,-10.7,2.5,2.4,-45.3,12.5
452,15.2485666666667,2026:04:27 12:27:50.249Z,32.1032489179915,35.209348552581,49.8,-10.6,2.4,3.5,-45.3,12.5
453,15.2819333333333,2026:04:27 12:27:50.282Z,32.1032489179915,35.209348552581,49.8,-10.6,2.4,3.5,-45.3,12.5
454,15.3153,2026:04:27 12:27:50.315Z,32.1032489179915,35.209348552581,49.8,-10.6,2.4,3.5,-45.3,13.7
455,15.3486666666667,2026:04:27 12:27:50.349Z,32.1032572307128,35.2093504263141,49.8,-10.9,2.2,4.6,-45.3,13.7
456,15.3820333333333,2026:04:27 12:27:50.382Z,32.1032572307128,35.2093504263141,49.8,-10.9,2.2,4.6,-45.3,13.7
457,15.4154,2026:04:27 12:27:50.415Z,32.1032572307128,35.2093504263141,49.8,-10.9,2.2,4.6,-45.3,14.8
458,15.4487666666667,2026:04:27 12:27:50.449Z,32.1032653020912,35.2093525002335,49.8,-10.6,2.5,5.8,-45.3,14.8
459,15.4821333333333,2026:04:27 12:27:50.482Z,32.1032653020912,35.2093525002335,49.8,-10.6,2.5,5.8,-45.3,14.8
460,15.5155,2026:04:27 12:27:50.516Z,32.1032653020912,35.2093525002335,49.8,-10.6,2.5,5.8,-45.3,16.0
461,15.5488666666667,2026:04:27 12:27:50.549Z,32.1032743649561,35.2093549215662,49.8,-10.0,2.7,6.9,-45.3,16.0
462,15.5822333333333,2026:04:27 12:27:50.582Z,32.1032743649561,35.2093549215662,49.8,-10.0,2.7,6.9,-45.3,16.0
463,15.6156,2026:04:27 12:27:50.616Z,32.1032743649561,35.2093549215662,49.8,-10.0,2.7,6.9,-45.3,17.1
464,15.6489666666667,2026:04:27 12:27:50.649Z,32.1032830860615,35.2093575613317,49.8,-9.9,2.7,8.0,-45.3,17.1
465,15.6823333333333,2026:04:27 12:27:50.682Z,32.1032830860615,35.2093575613317,49.8,-9.9,2.7,8.0,-45.3,17.1
466,15.7157,2026:04:27 12:27:50.716Z,32.1032830860615,35.2093575613317,49.8,-9.9,2.7,8.0,-45.3,18.2
467,15.7490666666667,2026:04:27 12:27:50.749Z,32.1032907733889,35.2093600485301,49.8,-9.8,2.7,9.2,-45.3,18.2
468,15.7824333333333,2026:04:27 12:27:50.782Z,32.1032907733889,35.2093600485301,49.8,-9.8,2.7,9.2,-45.3,18.2
469,15.8158,2026:04:27 12:27:50.816Z,32.1032907733889,35.2093600485301,49.8,-9.8,2.7,9.2,-45.3,19.4
470,15.8491666666667,2026:04:27 12:27:50.849Z,32.1032984529708,35.2093626435895,49.8,-9.5,2.9,10.3,-45.3,19.4
471,15.8825333333333,2026:04:27 12:27:50.883Z,32.1032984529708,35.2093626435895,49.8,-9.5,2.9,10.3,-45.3,19.4
472,15.9159,2026:04:27 12:27:50.916Z,32.1032984529708,35.2093626435895,49.8,-9.5,2.9,10.3,-45.3,20.5
473,15.9492666666667,2026:04:27 12:27:50.949Z,32.1033064102238,35.2093655961766,49.8,-9.0,2.8,11.5,-45.3,20.5
474,15.9826333333333,2026:04:27 12:27:50.983Z,32.1033064102238,35.2093655961766,49.8,-9.0,2.8,11.5,-45.3,20.5
475,16.016,2026:04:27 12:27:51.016Z,32.1033064102238,35.2093655961766,49.8,-9.0,2.8,11.5,-45.3,21.7
476,16.0493666666667,2026:04:27 12:27:51.049Z,32.1033136017737,35.2093682259086,49.8,-8.2,3.3,12.7,-45.3,21.7
477,16.0827333333333,2026:04:27 12:27:51.083Z,32.1033136017737,35.2093682259086,49.8,-8.2,3.3,12.7,-45.3,21.7
478,16.1161,2026:04:27 12:27:51.116Z,32.1033136017737,35.2093682259086,49.8,-8.2,3.3,12.7,-45.3,22.8
479,16.1494666666667,2026:04:27 12:27:51.149Z,32.10332300537,35.2093721386863,49.8,-7.9,2.9,13.9,-45.3,22.8
480,16.1828333333333,2026:04:27 12:27:51.183Z,32.10332300537,35.2093721386863,49.8,-7.9,2.9,13.9,-45.3,22.8
481,16.2162,2026:04:27 12:27:51.216Z,32.10332300537,35.2093721386863,49.8,-7.9,2.9,13.9,-45.3,23.9
482,16.2495666666667,2026:04:27 12:27:51.250Z,32.1033299531094,35.2093750682124,49.8,-7.8,2.4,15.0,-45.3,23.9
483,16.2829333333333,2026:04:27 12:27:51.283Z,32.1033299531094,35.2093750682124,49.8,-7.8,2.4,15.0,-45.3,23.9
484,16.3163,2026:04:27 12:27:51.316Z,32.1033299531094,35.2093750682124,49.8,-7.8,2.4,15.0,-45.3,25.0
485,16.3496666666667,2026:04:27 12:27:51.350Z,32.1033383787224,35.2093789293656,49.8,-7.6,2.3,16.2,-45.3,25.0
486,16.3830333333333,2026:04:27 12:27:51.383Z,32.1033383787224,35.2093789293656,49.8,-7.6,2.3,16.2,-45.3,25.0
487,16.4164,2026:04:27 12:27:51.416Z,32.1033383787224,35.2093789293656,49.8,-7.6,2.3,16.2,-45.3,26.1
488,16.4497666666667,2026:04:27 12:27:51.450Z,32.1033449038206,35.2093820452009,49.8,-8.2,1.2,17.2,-45.3,26.1
489,16.4831333333333,2026:04:27 12:27:51.483Z,32.1033449038206,35.2093820452009,49.8,-8.2,1.2,17.2,-45.3,26.1
490,16.5165,2026:04:27 12:27:51.516Z,32.1033449038206,35.2093820452009,49.8,-8.2,1.2,17.2,-45.3,27.0
491,16.5498666666667,2026:04:27 12:27:51.550Z,32.1033520991404,35.2093855985292,49.8,-9.0,0.2,18.2,-45.3,27.0
492,16.5832333333333,2026:04:27 12:27:51.583Z,32.1033520991404,35.2093855985292,49.8,-9.0,0.2,18.2,-45.3,27.0
493,16.6166,2026:04:27 12:27:51.617Z,32.1033520991404,35.2093855985292,49.8,-9.0,0.2,18.2,-45.3,27.7
494,16.6499666666667,2026:04:27 12:27:51.650Z,32.1033600620825,35.2093897346151,49.8,-11.2,-2.7,19.2,-45.3,27.7
495,16.6833333333333,2026:04:27 12:27:51.683Z,32.1033600620825,35.2093897346151,49.8,-11.2,-2.7,19.2,-45.3,27.7
496,16.7167,2026:04:27 12:27:51.717Z,32.1033600620825,35.2093897346151,49.8,-11.2,-2.7,19.2,-45.3,28.1
497,16.7500666666667,2026:04:27 12:27:51.750Z,32.1033682911803,35.2093940854927,49.8,-13.7,-5.0,19.8,-45.3,28.1
498,16.7834333333333,2026:04:27 12:27:51.783Z,32.1033682911803,35.2093940854927,49.8,-13.7,-5.0,19.8,-45.3,28.1
499,16.8168,2026:04:27 12:27:51.817Z,32.1033682911803,35.2093940854927,49.8,-13.7,-5.0,19.8,-45.3,28.2
500,16.8501666666667,2026:04:27 12:27:51.850Z,32.1033760637076,35.2093983099187,49.8,-15.2,-5.9,20.2,-45.3,28.2
501,16.8835333333333,2026:04:27 12:27:51.884Z,32.1033760637076,35.2093983099187,49.8,-15.2,-5.9,20.2,-45.3,28.2
502,16.9169,2026:04:27 12:27:51.917Z,32.1033760637076,35.2093983099187,49.8,-15.2,-5.9,20.2,-45.3,28.3
503,16.9502666666667,2026:04:27 12:27:51.950Z,32.1033828061584,35.2094019908516,49.8,-15.6,-6.0,20.3,-45.3,28.3
504,16.9836333333333,2026:04:27 12:27:51.984Z,32.1033828061584,35.2094019908516,49.8,-15.6,-6.0,20.3,-45.3,28.3
505,17.017,2026:04:27 12:27:52.017Z,32.1033828061584,35.2094019908516,49.8,-15.6,-6.0,20.3,-45.3,28.4
506,17.0503666666667,2026:04:27 12:27:52.050Z,32.1033908976887,35.2094061931673,49.8,-16.1,-5.8,20.4,-45.3,28.4
507,17.0837333333333,2026:04:27 12:27:52.084Z,32.1033908976887,35.2094061931673,49.8,-16.1,-5.8,20.4,-45.3,28.4
508,17.1171,2026:04:27 12:27:52.117Z,32.1033908976887,35.2094061931673,49.8,-16.1,-5.8,20.4,-45.3,28.6
509,17.1504666666667,2026:04:27 12:27:52.150Z,32.1033977532367,35.2094099271002,49.8,-16.4,-5.4,20.6,-45.3,28.6
510,17.1838333333333,2026:04:27 12:27:52.184Z,32.1033977532367,35.2094099271002,49.8,-16.4,-5.4,20.6,-45.3,28.6
511,17.2172,2026:04:27 12:27:52.217Z,32.1033977532367,35.2094099271002,49.8,-16.4,-5.4,20.6,-45.3,28.8
512,17.2505666666667,2026:04:27 12:27:52.251Z,32.1034062064728,35.2094144478814,49.8,-16.3,-5.3,20.7,-45.3,28.8
513,17.2839333333333,2026:04:27 12:27:52.284Z,32.1034062064728,35.2094144478814,49.8,-16.3,-5.3,20.7,-45.3,28.8
514,17.3173,2026:04:27 12:27:52.317Z,32.1034062064728,35.2094144478814,49.8,-16.3,-5.3,20.7,-45.3,29.1
515,17.3506666666667,2026:04:27 12:27:52.351Z,32.1034136495786,35.2094184656679,49.8,-16.3,-5.3,21.0,-45.3,29.1
516,17.3840333333333,2026:04:27 12:27:52.384Z,32.1034136495786,35.2094184656679,49.8,-16.3,-5.3,21.0,-45.3,29.1
517,17.4174,2026:04:27 12:27:52.417Z,32.1034136495786,35.2094184656679,49.8,-16.3,-5.3,21.0,-45.3,29.3
518,17.4507666666667,2026:04:27 12:27:52.451Z,32.1034215155311,35.2094228689387,49.8,-16.3,-5.4,21.2,-45.3,29.3
519,17.4841333333333,2026:04:27 12:27:52.484Z,32.1034215155311,35.2094228689387,49.8,-16.3,-5.4,21.2,-45.3,29.3
520,17.5175,2026:04:27 12:27:52.517Z,32.1034215155311,35.2094228689387,49.8,-16.3,-5.4,21.2,-45.3,29.6
521,17.5508666666667,2026:04:27 12:27:52.551Z,32.1034301944821,35.2094276839104,49.8,-16.3,-5.4,21.3,-45.3,29.6
522,17.5842333333333,2026:04:27 12:27:52.584Z,32.1034301944821,35.2094276839104,49.8,-16.3,-5.4,21.3,-45.3,29.6
523,17.6176,2026:04:27 12:27:52.618Z,32.1034301944821,35.2094276839104,49.8,-16.3,-5.4,21.3,-45.3,29.8
524,17.6509666666667,2026:04:27 12:27:52.651Z,32.1034381066332,35.2094322236663,49.8,-16.4,-5.0,21.4,-45.3,29.8
525,17.6843333333333,2026:04:27 12:27:52.684Z,32.1034381066332,35.2094322236663,49.8,-16.4,-5.0,21.4,-45.3,29.8
526,17.7177,2026:04:27 12:27:52.718Z,32.1034381066332,35.2094322236663,49.8,-16.4,-5.0,21.4,-45.3,30.0
527,17.7510666666667,2026:04:27 12:27:52.751Z,32.1034460689584,35.2094367390463,49.8,-16.6,-4.7,21.6,-45.3,30.0
528,17.7844333333333,2026:04:27 12:27:52.784Z,32.1034460689584,35.2094367390463,49.8,-16.6,-4.7,21.6,-45.3,30.0
529,17.8178,2026:04:27 12:27:52.818Z,32.1034460689584,35.2094367390463,49.8,-16.6,-4.7,21.6,-45.3,30.3
530,17.8511666666667,2026:04:27 12:27:52.851Z,32.1034544659201,35.2094415448543,49.8,-17.1,-4.6,21.8,-45.3,30.3
531,17.8845333333333,2026:04:27 12:27:52.885Z,32.1034544659201,35.2094415448543,49.8,-17.1,-4.6,21.8,-45.3,30.3
532,17.9179,2026:04:27 12:27:52.918Z,32.1034544659201,35.2094415448543,49.8,-17.1,-4.6,21.8,-45.3,30.5
533,17.9512666666667,2026:04:27 12:27:52.951Z,32.1034616751542,35.209445719355,49.8,-17.1,-4.5,22.0,-45.3,30.5
534,17.9846333333333,2026:04:27 12:27:52.985Z,32.1034616751542,35.209445719355,49.8,-17.1,-4.5,22.0,-45.3,30.5
535,18.018,2026:04:27 12:27:53.018Z,32.1034616751542,35.209445719355,49.8,-17.1,-4.5,22.0,-45.3,30.7
536,18.0513666666667,2026:04:27 12:27:53.051Z,32.1034690476598,35.2094499171192,49.8,-16.7,-4.2,22.2,-45.3,30.7
537,18.0847333333333,2026:04:27 12:27:53.085Z,32.1034690476598,35.2094499171192,49.8,-16.7,-4.2,22.2,-45.3,30.7
538,18.1181,2026:04:27 12:27:53.118Z,32.1034690476598,35.2094499171192,49.8,-16.7,-4.2,22.2,-45.3,31.0
539,18.1514666666667,2026:04:27 12:27:53.151Z,32.1034775407884,35.209454869891,49.8,-16.4,-3.9,22.3,-45.3,31.0
540,18.1848333333333,2026:04:27 12:27:53.185Z,32.1034775407884,35.209454869891,49.8,-16.4,-3.9,22.3,-45.3,31.0
541,18.2182,2026:04:27 12:27:53.218Z,32.1034775407884,35.209454869891,49.8,-16.4,-3.9,22.3,-45.3,31.2
542,18.2515666666667,2026:04:27 12:27:53.252Z,32.1034862854729,35.2094600691736,49.8,-16.3,-4.1,22.6,-45.3,31.2
543,18.2849333333333,2026:04:27 12:27:53.285Z,32.1034862854729,35.2094600691736,49.8,-16.3,-4.1,22.6,-45.3,31.2
